,Neighbourhood,Neighbourhood Latitude,Neighbourhood Longitude,Venue,Venue Latitude,Venue Longitude,Venue Category
0,Ada Ciganlija,44.78734000000003,20.41627000000005,Gušti mora,44.786487714413056,20.415922848605,Seafood Restaurant
1,Ada Ciganlija,44.78734000000003,20.41627000000005,Ada Mall,44.7875776574458,20.41825961505888,Shopping Mall
2,Ada Ciganlija,44.78734000000003,20.41627000000005,Kameni grad | Stonehenge,44.788251659762985,20.41628975283479,Sculpture Garden
3,Ada Ciganlija,44.78734000000003,20.41627000000005,Coffeedream,44.787345,20.418557,Coffee Shop
4,Ada Ciganlija,44.78734000000003,20.41627000000005,Goga grill,44.78642141651337,20.416045051365213,BBQ Joint
5,Ada Ciganlija,44.78734000000003,20.41627000000005,Vozic na Adi,44.78821978557488,20.415089114362626,Moving Target
6,Azbestno Naselje,44.81310000000008,20.463290000000033,Sinnerman,44.81324726055465,20.462932754131046,Jazz Club
7,Azbestno Naselje,44.81310000000008,20.463290000000033,Kafeterija | Кафетерија,44.81285187820009,20.46301212346027,Café
8,Banovo Brdo,44.77727998889153,20.414209995528005,Athletic's Gym,44.77757333674057,20.414900211899173,Gym
9,Banovo Brdo,44.77727998889153,20.414209995528005,Balkan Hotel Garni,44.77745654466199,20.414789701512635,Hotel
10,Banovo Brdo,44.77727998889153,20.414209995528005,McDonald's,44.77762118550356,20.41406889986175,Fast Food Restaurant
11,Bele Vode,44.751906,20.402559000000007,Isidora,44.751592,20.406174,Health & Beauty Service
12,Bele Vode,44.751906,20.402559000000007,Stanica Železnički tunel,44.74959981115757,20.400521897946355,Bus Station
13,Bele Vode,44.751906,20.402559000000007,Drink Store,44.754695480093794,20.404207706451416,Liquor Store
14,Bele Vode,44.751906,20.402559000000007,"Apoteka ""Oaza Zdravlja""",44.751324,20.407309,Pharmacy
15,Careva Cuprija,44.78642000000008,20.431950000000032,Careva ćuprija,44.7862127985576,20.432195217923734,Restaurant
16,Careva Cuprija,44.78642000000008,20.431950000000032,Sportska akademija „Senjak”,44.78850849610606,20.431950158389302,Athletics & Sports
17,Careva Cuprija,44.78642000000008,20.431950000000032,Hipodrom Beograd,44.78383287507571,20.430477127387405,Racecourse
18,Careva Cuprija,44.78642000000008,20.431950000000032,Muzej afričke umetnosti,44.788764164722686,20.4351561980882,Museum
19,Careva Cuprija,44.78642000000008,20.431950000000032,Konjički sportski centar ''L'amour du cheval'',44.783844721382,20.43045860927251,Stables
20,Careva Cuprija,44.78642000000008,20.431950000000032,Topčiderac,44.78497692216841,20.43676175167405,Restaurant
21,Careva Cuprija,44.78642000000008,20.431950000000032,Restoran 27,44.7873790508644,20.43644763423114,Mediterranean Restaurant
22,Careva Cuprija,44.78642000000008,20.431950000000032,Prestige,44.78418170125057,20.433929567270958,Hotel
23,Careva Cuprija,44.78642000000008,20.431950000000032,Stadion FK BASK,44.78461541287383,20.43281149079944,Soccer Stadium
24,Careva Cuprija,44.78642000000008,20.431950000000032,Posco arena,44.783963197502416,20.434313883297555,Soccer Field
25,Careva Cuprija,44.78642000000008,20.431950000000032,Posco Residence,44.784018301962014,20.434352762799353,Hotel
26,Careva Cuprija,44.78642000000008,20.431950000000032,Restoran kovnice novca,44.783687007662124,20.434980451521934,Restaurant
27,Careva Cuprija,44.78642000000008,20.431950000000032,Strelište Careva ćuprija,44.78283822528455,20.430953332862067,Gun Range
28,Cerak,44.74769619580906,20.419112440744147,Fuerte Kids,44.74878540632664,20.416013541745922,Playground
29,Cerak,44.74769619580906,20.419112440744147,Lorenzo,44.74926159985161,20.41703794031276,Café
30,Cerak,44.74769619580906,20.419112440744147,Drink Store,44.74812,20.416952,Convenience Store
31,Cerak,44.74769619580906,20.419112440744147,Fuerte,44.749372348327576,20.4172007458691,Café
32,Cerak II,44.74769619580906,20.419112440744147,Fuerte Kids,44.74878540632664,20.416013541745922,Playground
33,Cerak II,44.74769619580906,20.419112440744147,Lorenzo,44.74926159985161,20.41703794031276,Café
34,Cerak II,44.74769619580906,20.419112440744147,Drink Store,44.74812,20.416952,Convenience Store
35,Cerak II,44.74769619580906,20.419112440744147,Fuerte,44.749372348327576,20.4172007458691,Café
36,Cerak Vinogradi,44.74769619580906,20.419112440744147,Fuerte Kids,44.74878540632664,20.416013541745922,Playground
37,Cerak Vinogradi,44.74769619580906,20.419112440744147,Lorenzo,44.74926159985161,20.41703794031276,Café
38,Cerak Vinogradi,44.74769619580906,20.419112440744147,Drink Store,44.74812,20.416952,Convenience Store
39,Cerak Vinogradi,44.74769619580906,20.419112440744147,Fuerte,44.749372348327576,20.4172007458691,Café
40,Cukarica,44.77824000000004,20.41505000000007,Che cosa,44.77790086467218,20.414484962857955,Pizza Place
41,Cukaricka Padina,44.77744005496564,20.40658004053894,Status,44.77671513411725,20.406897104179578,Pizza Place
42,Cukaricka Padina,44.77744005496564,20.40658004053894,Fanatic KIDS,44.77502256007212,20.407869345515138,Toy / Game Store
43,Cukaricka Padina,44.77744005496564,20.40658004053894,Tajvan,44.78064213293191,20.409260807305554,Chinese Restaurant
44,Cukaricka Padina,44.77744005496564,20.40658004053894,Žar Mance,44.7769787849859,20.411607039953253,BBQ Joint
45,Cukaricka Padina,44.77744005496564,20.40658004053894,Market Padina,44.776765611937805,20.406700044538187,Market
46,Cukaricka Padina,44.77744005496564,20.40658004053894,Koncho,44.77819483221462,20.40656805038452,Café
47,Filmski Grad,44.75890000000004,20.433380000000056,SquashLand,44.760868307913796,20.436418787723323,Squash Court
48,Filmski Grad,44.75890000000004,20.433380000000056,Squash Klub Beograd,44.76083849677339,20.436433023582318,Stadium
49,Filmski Grad,44.75890000000004,20.433380000000056,SRC Pionirski grad,44.760955325435255,20.436514625253203,Athletics & Sports
50,Filmski Grad,44.75890000000004,20.433380000000056,Restoran Filmski grad,44.75853253066679,20.43342661453227,Restaurant
51,Filmski Grad,44.75890000000004,20.433380000000056,Filmski bar,44.75849678082918,20.433498088915997,Bar
52,Filmski Grad,44.75890000000004,20.433380000000056,Ruska bajka,44.75727795454446,20.434701237486504,Restaurant
53,Filmski Grad,44.75890000000004,20.433380000000056,Teniski klub Privilege,44.76084355966973,20.431222915649414,Tennis Stadium
54,Filmski Grad,44.75890000000004,20.433380000000056,Balon „Pionir KMF”,44.760472360533115,20.436862207252698,Soccer Field
55,Golf Naselje,44.7709799516709,20.427690043857115,Kafanica,44.77082516141106,20.42562405782423,Eastern European Restaurant
56,Golf Naselje,44.7709799516709,20.427690043857115,Woodball House,44.76753647602021,20.42895616334483,Soccer Field
57,Golf Naselje,44.7709799516709,20.427690043857115,Magic Land,44.772614294473414,20.42331648668395,Playground
58,Golf Naselje,44.7709799516709,20.427690043857115,Golf,44.770819968351056,20.427985915875347,Restaurant
59,Julino Brdo,44.76665700000001,20.41078500000002,JYSK,44.768418248824425,20.411785974556743,Furniture / Home Store
60,Julino Brdo,44.76665700000001,20.41078500000002,Forma Ideale,44.768467038235144,20.41158765624946,Furniture / Home Store
61,Julino Brdo,44.76665700000001,20.41078500000002,Parkić Julino brdo,44.76858187416591,20.410246680574296,Park
62,Julino Brdo,44.76665700000001,20.41078500000002,Ivanina okretnica,44.768762645691766,20.41321778368099,Boat or Ferry
63,Kosutnjak,44.76515000000007,20.423220000000068,Bazeni Košutnjak,44.7645901085577,20.423992605656732,Pool
64,Kosutnjak,44.76515000000007,20.423220000000068,TK Baseline,44.76511764526367,20.42005729675293,Tennis Court
65,Kosutnjak,44.76515000000007,20.423220000000068,Satelit,44.76493401000534,20.423189551333483,Restaurant
66,Kosutnjak,44.76515000000007,20.423220000000068,Hala sportova Žarkovo,44.76160551244509,20.423215595525484,Athletics & Sports
67,Kosutnjak,44.76515000000007,20.423220000000068,Jelek,44.76688,20.41923,Comfort Food Restaurant
68,Kosutnjak,44.76515000000007,20.423220000000068,Sportski centar Košutnjak,44.76613151280595,20.418876471917173,Athletics & Sports
69,Kosutnjak,44.76515000000007,20.423220000000068,Atelje,44.766249527670645,20.423365558083024,Sandwich Place
70,Kosutnjak,44.76515000000007,20.423220000000068,Moje brdo,44.76783337110959,20.420219401728083,Café
71,Kosutnjak,44.76515000000007,20.423220000000068,Teniski klub Trim,44.766759568882186,20.42700626549056,Tennis Court
72,Makis,44.78671000000003,20.46727000000004,Pekara i roštilj Kod nas,44.78782049473569,20.465288519714893,Bakery
73,Makis,44.78671000000003,20.46727000000004,Stepin vajat,44.78653734913505,20.46700129246955,BBQ Joint
74,Makis,44.78671000000003,20.46727000000004,bar-A-bar,44.78803637007004,20.46544886304823,Bar
75,Makis,44.78671000000003,20.46727000000004,Foot,44.784797662558475,20.4663509381926,Soccer Field
76,Makis,44.78671000000003,20.46727000000004,Novi Sport,44.78732372942,20.466215114902756,Restaurant
77,Makis,44.78671000000003,20.46727000000004,KTM Racing,44.785455273146816,20.467565259703626,Motorcycle Shop
78,Makis,44.78671000000003,20.46727000000004,Palačinkarnica Premier,44.786669837447654,20.467183556477384,Creperie
79,Makis,44.78671000000003,20.46727000000004,Spomen-park Topovske šupe,44.785977598658334,20.4665207862854,Park
80,Makis,44.78671000000003,20.46727000000004,Kazablanka,44.78712664770141,20.466328760977216,Flower Shop
81,Makis,44.78671000000003,20.46727000000004,Parkić na Komandi,44.78788168468884,20.465179789969323,Park
82,Makis,44.78671000000003,20.46727000000004,Abadi | Arapin,44.78781271654168,20.46477198600769,Market
83,Novi Zeleznik,44.81310000000008,20.463290000000033,Sinnerman,44.81324726055465,20.462932754131046,Jazz Club
84,Novi Zeleznik,44.81310000000008,20.463290000000033,Kafeterija | Кафетерија,44.81285187820009,20.46301212346027,Café
85,Orlovaca,44.81310000000008,20.463290000000033,Sinnerman,44.81324726055465,20.462932754131046,Jazz Club
86,Orlovaca,44.81310000000008,20.463290000000033,Kafeterija | Кафетерија,44.81285187820009,20.46301212346027,Café
87,Repiste,44.81310000000008,20.463290000000033,Sinnerman,44.81324726055465,20.462932754131046,Jazz Club
88,Repiste,44.81310000000008,20.463290000000033,Kafeterija | Кафетерија,44.81285187820009,20.46301212346027,Café
89,Rupcine,44.81310000000008,20.463290000000033,Sinnerman,44.81324726055465,20.462932754131046,Jazz Club
90,Rupcine,44.81310000000008,20.463290000000033,Kafeterija | Кафетерија,44.81285187820009,20.46301212346027,Café
91,Stari Cerak,44.74769619580906,20.419112440744147,Fuerte Kids,44.74878540632664,20.416013541745922,Playground
92,Stari Cerak,44.74769619580906,20.419112440744147,Lorenzo,44.74926159985161,20.41703794031276,Café
93,Stari Cerak,44.74769619580906,20.419112440744147,Drink Store,44.74812,20.416952,Convenience Store
94,Stari Cerak,44.74769619580906,20.419112440744147,Fuerte,44.749372348327576,20.4172007458691,Café
95,Suncana Padina,44.81310000000008,20.463290000000033,Sinnerman,44.81324726055465,20.462932754131046,Jazz Club
96,Suncana Padina,44.81310000000008,20.463290000000033,Kafeterija | Кафетерија,44.81285187820009,20.46301212346027,Café
97,Zarkovo,44.754986932436644,20.40993849745542,Kafana Čedić,44.75627061491211,20.404968420514535,Restaurant
98,Zarkovo,44.754986932436644,20.40993849745542,Sportski centar Partizan,44.7552161192551,20.406582287505444,Tennis Stadium
99,Zarkovo,44.754986932436644,20.40993849745542,Pijaca Bele vode,44.75523515209615,20.40983466765581,Farmers Market
100,Zarkovo,44.754986932436644,20.40993849745542,Viršlomobil,44.75516955402223,20.409862434961383,Food Truck
101,Zarkovo,44.754986932436644,20.40993849745542,Grb,44.75397044352448,20.413792383681315,Diner
102,Zarkovo,44.754986932436644,20.40993849745542,Minjon D,44.754050371100774,20.41427118293829,Butcher
103,Zarkovo Selo,44.754986932436644,20.40993849745542,Kafana Čedić,44.75627061491211,20.404968420514535,Restaurant
104,Zarkovo Selo,44.754986932436644,20.40993849745542,Sportski centar Partizan,44.7552161192551,20.406582287505444,Tennis Stadium
105,Zarkovo Selo,44.754986932436644,20.40993849745542,Pijaca Bele vode,44.75523515209615,20.40983466765581,Farmers Market
106,Zarkovo Selo,44.754986932436644,20.40993849745542,Viršlomobil,44.75516955402223,20.409862434961383,Food Truck
107,Zarkovo Selo,44.754986932436644,20.40993849745542,Grb,44.75397044352448,20.413792383681315,Diner
108,Zarkovo Selo,44.754986932436644,20.40993849745542,Minjon D,44.754050371100774,20.41427118293829,Butcher
109,Zeleznik,44.81310000000008,20.463290000000033,Sinnerman,44.81324726055465,20.462932754131046,Jazz Club
110,Zeleznik,44.81310000000008,20.463290000000033,Kafeterija | Кафетерија,44.81285187820009,20.46301212346027,Café
111,Zeleznik Selo,44.81310000000008,20.463290000000033,Sinnerman,44.81324726055465,20.462932754131046,Jazz Club
112,Zeleznik Selo,44.81310000000008,20.463290000000033,Kafeterija | Кафетерија,44.81285187820009,20.46301212346027,Café
113,Ada Medjica,44.79134771904464,20.38797650839549,Ada Međica,44.79246622177358,20.389162765993905,Island
114,Ada Medjica,44.79134771904464,20.38797650839549,Ада Циганлија | Ada Ciganlija,44.788840661646574,20.39586067199707,Lake
115,Ada Medjica,44.79134771904464,20.38797650839549,Savski kej | Šetalište Lazaro Kardenasa,44.796991941959284,20.39088858351639,Pedestrian Plaza
116,Ada Medjica,44.79134771904464,20.38797650839549,Andrea Mia,44.792539402178775,20.381011066770487,Italian Restaurant
117,Ada Medjica,44.79134771904464,20.38797650839549,Klub U.C. „Talija”,44.79516347074,20.38680622414513,Bar
118,Ada Medjica,44.79134771904464,20.38797650839549,Stari Pingvin,44.7953476906677,20.394063692169684,Restaurant
119,Ada Medjica,44.79134771904464,20.38797650839549,Miner's Raft,44.79514589671712,20.390049470184707,Beer Bar
120,Ada Medjica,44.79134771904464,20.38797650839549,Nepenthes,44.78557373951447,20.391090280723553,Lounge
121,Ada Medjica,44.79134771904464,20.38797650839549,Paradoks,44.795309344433406,20.39249363765964,Bar
122,Ada Medjica,44.79134771904464,20.38797650839549,Sudbina,44.79564534864566,20.39496686850555,Bar
123,Ada Medjica,44.79134771904464,20.38797650839549,Forma,44.79540332781818,20.394984364654178,Restaurant
124,Ada Medjica,44.79134771904464,20.38797650839549,Splav Coco,44.794877748201,20.388246082124283,Café
125,Ada Medjica,44.79134771904464,20.38797650839549,Režiser,44.78437328952681,20.386531175870786,Café
126,Ada Medjica,44.79134771904464,20.38797650839549,Knjaz,44.794301902675926,20.38508442099363,Pub
127,Ada Medjica,44.79134771904464,20.38797650839549,Godo,44.79522384828818,20.391500166154216,Italian Restaurant
128,Ada Medjica,44.79134771904464,20.38797650839549,Toša,44.791722585753035,20.379338736319625,Seafood Restaurant
129,Ada Medjica,44.79134771904464,20.38797650839549,Pingvin,44.795276937439375,20.39219247145361,Pizza Place
130,Ada Medjica,44.79134771904464,20.38797650839549,Skalar,44.79553779161521,20.395888717268875,Bar
131,Ada Medjica,44.79134771904464,20.38797650839549,Aligator,44.7953969976703,20.394640773731044,Café
132,Ada Medjica,44.79134771904464,20.38797650839549,Splav Vilenjak,44.79170995725596,20.379339420338795,BBQ Joint
133,Ada Medjica,44.79134771904464,20.38797650839549,Groš,44.79542447462184,20.394339919968417,Café
134,Ada Medjica,44.79134771904464,20.38797650839549,Šraf,44.79549294797011,20.395576948228396,Bar
135,Ada Medjica,44.79134771904464,20.38797650839549,Shark,44.785883348008156,20.39217270836248,Sports Bar
136,Ada Medjica,44.79134771904464,20.38797650839549,Jezero,44.79485152577108,20.387840652311173,Café
137,Ada Medjica,44.79134771904464,20.38797650839549,8+ (Osam plus),44.785046815471055,20.389109874504776,Eastern European Restaurant
138,Ada Medjica,44.79134771904464,20.38797650839549,Barka,44.79571159792828,20.392316601955553,Beer Garden
139,Ada Medjica,44.79134771904464,20.38797650839549,Kawa Sushi Bar,44.79595180897915,20.395422277266743,Sushi Restaurant
140,Ada Medjica,44.79134771904464,20.38797650839549,Corto ski,44.79550601935791,20.3955608549009,Bar
141,Ada Medjica,44.79134771904464,20.38797650839549,Makondo Hacienda,44.786125,20.393084,Lounge
142,Ada Medjica,44.79134771904464,20.38797650839549,Shop&Go,44.79851781384109,20.386734386149097,Market
143,Ada Medjica,44.79134771904464,20.38797650839549,Splav Jezero,44.79485240946231,20.38779001054644,Café
144,Ada Medjica,44.79134771904464,20.38797650839549,Waterski Club Rush,44.79384687332643,20.383106768131256,Recreation Center
145,Ada Medjica,44.79134771904464,20.38797650839549,Špic Ade Međice,44.79440725768487,20.382649903862152,Campground
146,Ada Medjica,44.79134771904464,20.38797650839549,Okretnica gradskog prevoza Gandijeva,44.79654,20.3901,Bus Station
147,Ada Medjica,44.79134771904464,20.38797650839549,Marina La Sata,44.79175377257577,20.37939919167292,River
148,Ada Medjica,44.79134771904464,20.38797650839549,STARA KRUNA,44.785771211129386,20.391554274598693,Café
149,Ada Medjica,44.79134771904464,20.38797650839549,Cafe Ceca,44.78655671469718,20.395016881820204,Café
150,Ada Medjica,44.79134771904464,20.38797650839549,Caffe Sirano,44.78662938145913,20.395730648810474,Bar
151,Ada Medjica,44.79134771904464,20.38797650839549,Del Mar,44.786478913489034,20.395541032972073,Café
152,Ada Medjica,44.79134771904464,20.38797650839549,Parkić ispred zgrade,44.79845857687074,20.39092410500328,Park
153,Ada Medjica,44.79134771904464,20.38797650839549,Obala naturista,44.78375722560765,20.389718470404706,Nudist Beach
154,Ada Medjica,44.79134771904464,20.38797650839549,Tropical Heat - Ada,44.78628947,20.394471287727356,Bar
155,Airport City Belgrade,44.81310000000008,20.463290000000033,Sinnerman,44.81324726055465,20.462932754131046,Jazz Club
156,Airport City Belgrade,44.81310000000008,20.463290000000033,Kafeterija | Кафетерија,44.81285187820009,20.46301212346027,Café
157,Bezanija,44.80936392218182,20.37637864753578,Kesten,44.809863658694255,20.378364659763324,Restaurant
158,Bezanija,44.80936392218182,20.37637864753578,Park u bloku 63,44.80609217807168,20.382020473480225,Park
159,Bezanija,44.80936392218182,20.37637864753578,Falafel ćoše,44.81009188399657,20.382917618022677,Falafel Restaurant
160,Bezanija,44.80936392218182,20.37637864753578,Lidl,44.81056119674614,20.38437111427209,Supermarket
161,Bezanija,44.80936392218182,20.37637864753578,Vespucci,44.81198292485142,20.370010609566286,Pizza Place
162,Bezanija,44.80936392218182,20.37637864753578,Silhouette Beauty Studio,44.81313915648288,20.370807388169567,Massage Studio
163,Bezanija,44.80936392218182,20.37637864753578,Lav,44.806902511535284,20.382584778403398,Pizza Place
164,Bezanija,44.80936392218182,20.37637864753578,GAK,44.814990347467855,20.373584225973456,Bakery
165,Bezanija,44.80936392218182,20.37637864753578,Cada Dia,44.81237809435308,20.370708121716618,Café
166,Bezanija,44.80936392218182,20.37637864753578,Fit Mania,44.80550385192,20.378700724173985,Gym / Fitness Center
167,Bezanija,44.80936392218182,20.37637864753578,Hermes,44.815049342757796,20.37349586746308,Bakery
168,Bezanija,44.80936392218182,20.37637864753578,Golden Wok,44.805353966240126,20.37821818705212,Chinese Restaurant
169,Bezanija,44.80936392218182,20.37637864753578,Mak,44.80696073418745,20.38274555808162,Bakery
170,Bezanija,44.80936392218182,20.37637864753578,dm-drogerie markt,44.80436761727732,20.377290652315473,Cosmetics Shop
171,Bezanija,44.80936392218182,20.37637864753578,Cezar,44.80377109948019,20.37447908902379,Restaurant
172,Bezanija,44.80936392218182,20.37637864753578,Pause,44.814023858618526,20.37591051360325,Lounge
173,Bezanija,44.80936392218182,20.37637864753578,JYSK,44.80441029620355,20.37696694590015,Furniture / Home Store
174,Bezanija,44.80936392218182,20.37637864753578,Shop&Go,44.810841,20.382258,Market
175,Bezanija,44.80936392218182,20.37637864753578,Univerexport,44.80441494479285,20.376850097242077,Supermarket
176,Bezanija,44.80936392218182,20.37637864753578,City Caffe,44.807294672674736,20.38304591534167,Café
177,Bezanija,44.80936392218182,20.37637864753578,Kod stare vrbe,44.80797548617933,20.384554414652452,Restaurant
178,Bezanija,44.80936392218182,20.37637864753578,Stefan,44.815194787170526,20.37442588163875,Fast Food Restaurant
179,Bezanija,44.80936392218182,20.37637864753578,Banjalučki ćevap,44.80667826544215,20.385663188419233,Burger Joint
180,Bezanija,44.80936392218182,20.37637864753578,Stadion FK Bežanija,44.807636285886,20.374719054001314,Soccer Stadium
181,Bezanija,44.80936392218182,20.37637864753578,Pijaca Bežanijska kosa,44.81548850047251,20.374334660560805,Farmers Market
182,Bezanija,44.80936392218182,20.37637864753578,Duplex,44.81146515421568,20.369393913810367,Café
183,Bezanija,44.80936392218182,20.37637864753578,Maxi,44.81115067234465,20.36890678042367,Supermarket
184,Bezanija,44.80936392218182,20.37637864753578,Studio Blaze,44.806685916025835,20.372772216796875,Recording Studio
185,Bezanija,44.80936392218182,20.37637864753578,Tips,44.80955984758861,20.370076230037846,Pizza Place
186,Bezanija,44.80936392218182,20.37637864753578,Pazarski ćevap,44.81082216690026,20.382468847775808,BBQ Joint
187,Bezanija,44.80936392218182,20.37637864753578,Bežanijska padina,44.81088089908496,20.38261686156563,Hill
188,Bezanija,44.80936392218182,20.37637864753578,Ko to tamo čita,44.81067664938137,20.382983997471772,Bookstore
189,Bezanija,44.80936392218182,20.37637864753578,Dolce vita's,44.81013259721495,20.383167233127537,Bar
190,Bezanija,44.80936392218182,20.37637864753578,Stajalište gradskog prevoza Gandijeva,44.810605,20.383503,Bus Stop
191,Bezanija,44.80936392218182,20.37637864753578,Pite ispod sača Sač-Mač,44.81531,20.374365,Pie Shop
192,Bezanija,44.80936392218182,20.37637864753578,Park u bloku 64,44.809383732796185,20.385084768384548,Park
193,Bezanija,44.80936392218182,20.37637864753578,Bus 601,44.8095197342899,20.385372997057946,Moving Target
194,Bezanija,44.80936392218182,20.37637864753578,Pet shop Lunja,44.80420284556221,20.370226434819184,Pet Store
195,Bezanija,44.80936392218182,20.37637864753578,Crveni parkić,44.81032477560132,20.366913014025677,Park
196,Bezanijska Kosa,44.81695800000002,20.391761249999995,Caffe Primavera,44.81730253094136,20.389638873561893,Café
197,Bezanijska Kosa,44.81695800000002,20.391761249999995,Stojana Aralice,44.817966575369894,20.390427005334534,Farm
198,Bezanijska Kosa,44.81695800000002,20.391761249999995,Kad ti dođem nesrećo,44.817328345502496,20.389639679613264,Café
199,Blokovi,44.81310000000008,20.463290000000033,Sinnerman,44.81324726055465,20.462932754131046,Jazz Club
200,Blokovi,44.81310000000008,20.463290000000033,Kafeterija | Кафетерија,44.81285187820009,20.46301212346027,Café
201,Delta City,44.804800000000064,20.40499000000005,Beerville,44.80634722140124,20.40538882702947,Beer Store
202,Delta City,44.804800000000064,20.40499000000005,Go Sushi,44.806585335048176,20.406261524260042,Sushi Restaurant
203,Delta City,44.804800000000064,20.40499000000005,Massimo Dutti,44.80504126330134,20.405884191438748,Clothing Store
204,Delta City,44.804800000000064,20.40499000000005,Zara,44.805018616175815,20.405961587496243,Clothing Store
205,Delta City,44.804800000000064,20.40499000000005,Cineplexx,44.805049868131654,20.40480331144921,Multiplex
206,Delta City,44.804800000000064,20.40499000000005,Lavina,44.80633351495549,20.40643867910881,Italian Restaurant
207,Delta City,44.804800000000064,20.40499000000005,Sportina,44.80498056276111,20.40462094755797,Clothing Store
208,Delta City,44.804800000000064,20.40499000000005,Monument,44.80497884156992,20.404465360890615,Italian Restaurant
209,Delta City,44.804800000000064,20.40499000000005,YoMama,44.80499398238157,20.404750977456064,Dessert Shop
210,Delta City,44.804800000000064,20.40499000000005,Delta City,44.80519516649397,20.405007236181767,Shopping Mall
211,Delta City,44.804800000000064,20.40499000000005,Здраво живо | Zdravo živo,44.80548205095131,20.408020358212603,Vegetarian / Vegan Restaurant
212,Delta City,44.804800000000064,20.40499000000005,Bershka,44.80502009669079,20.404591174970275,Shoe Store
213,Delta City,44.804800000000064,20.40499000000005,Adoré chocolat,44.80499759101182,20.405189959695193,Chocolate Shop
214,Delta City,44.804800000000064,20.40499000000005,Sephora,44.80498635162045,20.405828980223717,Cosmetics Shop
215,Delta City,44.804800000000064,20.40499000000005,Vulkan knjižara,44.804884046896056,20.406006477357465,Bookstore
216,Delta City,44.804800000000064,20.40499000000005,Kokpit,44.80578678775041,20.406679517573753,Coffee Shop
217,Delta City,44.804800000000064,20.40499000000005,Доза | Doza,44.806514021450255,20.406417282183536,Coffee Shop
218,Delta City,44.804800000000064,20.40499000000005,Dexy Co Kids,44.80498885955223,20.40472457334804,Kids Store
219,Delta City,44.804800000000064,20.40499000000005,Green Mill 2,44.80681389827536,20.40449570486295,Pub
220,Delta City,44.804800000000064,20.40499000000005,McDonald's,44.80500666595747,20.404707954206188,Fast Food Restaurant
221,Delta City,44.804800000000064,20.40499000000005,H&M,44.805430385574354,20.40461797965691,Clothing Store
222,Delta City,44.804800000000064,20.40499000000005,C&A,44.804937592028324,20.406073604421728,Clothing Store
223,Delta City,44.804800000000064,20.40499000000005,Express Kuhinja,44.80526833842541,20.407406080570695,Restaurant
224,Delta City,44.804800000000064,20.40499000000005,Asia Food,44.80503313538015,20.40473628041347,Chinese Restaurant
225,Delta City,44.804800000000064,20.40499000000005,Mala Kuhinja,44.80646233461203,20.404622624473483,Italian Restaurant
226,Delta City,44.804800000000064,20.40499000000005,Despacito,44.80484487377145,20.402149005802215,Restaurant
227,Delta City,44.804800000000064,20.40499000000005,Fish & Bar,44.8050397605471,20.40462341360827,Seafood Restaurant
228,Delta City,44.804800000000064,20.40499000000005,KFC,44.80500405336649,20.40469469537229,Fried Chicken Joint
229,Delta City,44.804800000000064,20.40499000000005,Sport Vision,44.80590050054751,20.404740289805464,Sporting Goods Shop
230,Delta City,44.804800000000064,20.40499000000005,Fifty Fifty,44.805960763543794,20.407763117530994,Restaurant
231,Delta City,44.804800000000064,20.40499000000005,Caribic Pizza,44.805011696690414,20.40470799737639,Pizza Place
232,Delta City,44.804800000000064,20.40499000000005,Tehnomanija,44.80378778445804,20.404511168504317,Electronics Store
233,Delta City,44.804800000000064,20.40499000000005,Caffe Pizzeria Mimis,44.80650972962209,20.406952302525095,Pizza Place
234,Delta City,44.804800000000064,20.40499000000005,Igraonica Circus,44.80501502237055,20.404733803335045,Indoor Play Area
235,Delta City,44.804800000000064,20.40499000000005,Очајне домаћице | Očajne domaćice,44.805123007938995,20.40751108089608,Fast Food Restaurant
236,Delta City,44.804800000000064,20.40499000000005,Propaganda,44.80522787437553,20.407078865922042,Café
237,Delta City,44.804800000000064,20.40499000000005,Music,44.804949035408576,20.404522179333007,Café
238,Delta City,44.804800000000064,20.40499000000005,SuperMaxi,44.80485947143091,20.405961504441496,Supermarket
239,Delta City,44.804800000000064,20.40499000000005,Tally Weijl,44.80500025780688,20.40591849882314,Women's Store
240,Delta City,44.804800000000064,20.40499000000005,Coincasa,44.80493418786574,20.404760263031235,Furniture / Home Store
241,Delta City,44.804800000000064,20.40499000000005,Samsung Galaxy Studio,44.80515424456546,20.404875587143128,General Entertainment
242,Delta City,44.804800000000064,20.40499000000005,Benu apoteka,44.80487302208618,20.405934642548782,Pharmacy
243,Delta City,44.804800000000064,20.40499000000005,Vip mobile,44.80519914105451,20.404855447442273,Mobile Phone Shop
244,Delta City,44.804800000000064,20.40499000000005,Beosport,44.8049335353319,20.405038514501797,Sporting Goods Shop
245,Delta City,44.804800000000064,20.40499000000005,Buzz,44.80492350396291,20.40608174508812,Sporting Goods Shop
246,Delta City,44.804800000000064,20.40499000000005,Aldo,44.80502647923581,20.404701232910156,Shoe Store
247,Delta City,44.804800000000064,20.40499000000005,Krofna bar,44.80537663959644,20.404722690582275,Donut Shop
248,Delta City,44.804800000000064,20.40499000000005,Bershka,44.80489989682771,20.405981924933155,Shoe Store
249,Delta City,44.804800000000064,20.40499000000005,Bata,44.804966990678544,20.405900476196752,Shoe Store
250,Delta City,44.804800000000064,20.40499000000005,Stradivarius,44.804930673926364,20.405764474169466,Women's Store
251,Delta City,44.804800000000064,20.40499000000005,Senza Paura,44.80512450962212,20.407565372653274,Pizza Place
252,Delta City,44.804800000000064,20.40499000000005,Carpisa,44.80597217112235,20.407554193905984,Accessories Store
253,Dr Ivan Ribar,44.79548853995508,20.373105568035946,Blok,44.79687835106439,20.371094518818424,Café
254,Dr Ivan Ribar,44.79548853995508,20.373105568035946,Kafana Sveti Nikola,44.79705486114451,20.377702938494675,BBQ Joint
255,Dr Ivan Ribar,44.79548853995508,20.373105568035946,Kafe Čarli,44.798002206265735,20.37293725937243,Café
256,Dr Ivan Ribar,44.79548853995508,20.373105568035946,Savski škorpion,44.788705,20.373189,Seafood Restaurant
257,Dr Ivan Ribar,44.79548853995508,20.373105568035946,Miloš,44.7978726688832,20.375786354689584,Bakery
258,Dr Ivan Ribar,44.79548853995508,20.373105568035946,Andrea Mia,44.792539402178775,20.381011066770487,Italian Restaurant
259,Dr Ivan Ribar,44.79548853995508,20.373105568035946,Gagarin,44.79964499699093,20.375174660487147,Café
260,Dr Ivan Ribar,44.79548853995508,20.373105568035946,Staro ognjište,44.79767562713192,20.370824596017325,Restaurant
261,Dr Ivan Ribar,44.79548853995508,20.373105568035946,Džo,44.80194283181305,20.370334937764643,Bakery
262,Dr Ivan Ribar,44.79548853995508,20.373105568035946,Klavirint,44.79604689564632,20.37819095336377,Café
263,Dr Ivan Ribar,44.79548853995508,20.373105568035946,Toša,44.791722585753035,20.379338736319625,Seafood Restaurant
264,Dr Ivan Ribar,44.79548853995508,20.373105568035946,Crna maca,44.7906070258322,20.37674843240732,Restaurant
265,Dr Ivan Ribar,44.79548853995508,20.373105568035946,Fitness centar Integral,44.7948556771006,20.37264347076416,Gym / Fitness Center
266,Dr Ivan Ribar,44.79548853995508,20.373105568035946,Splav Vilenjak,44.79170995725596,20.379339420338795,BBQ Joint
267,Dr Ivan Ribar,44.79548853995508,20.373105568035946,dm-drogerie markt,44.79371792640507,20.374659504437805,Cosmetics Shop
268,Dr Ivan Ribar,44.79548853995508,20.373105568035946,Park u bloku 62,44.80222419679607,20.37416737522973,Park
269,Dr Ivan Ribar,44.79548853995508,20.373105568035946,Restoran Route 45,44.797340615366956,20.377386052682144,Restaurant
270,Dr Ivan Ribar,44.79548853995508,20.373105568035946,Giros Plus,44.79779753526409,20.371813097018705,Greek Restaurant
271,Dr Ivan Ribar,44.79548853995508,20.373105568035946,Princip 1,44.79285215309866,20.375526186085736,Pub
272,Dr Ivan Ribar,44.79548853995508,20.373105568035946,Arkadije,44.79856509101511,20.37465236335394,Bar
273,Dr Ivan Ribar,44.79548853995508,20.373105568035946,Hit,44.80201106475598,20.37057322087685,Bakery
274,Dr Ivan Ribar,44.79548853995508,20.373105568035946,Minja,44.794048289293656,20.373999907443658,Bakery
275,Dr Ivan Ribar,44.79548853995508,20.373105568035946,Maxi,44.80072528758193,20.372362095571493,Supermarket
276,Dr Ivan Ribar,44.79548853995508,20.373105568035946,Gak,44.80074284758511,20.372399852032668,Bakery
277,Dr Ivan Ribar,44.79548853995508,20.373105568035946,Bata Laki,44.79044877667051,20.376322498807266,Bar
278,Dr Ivan Ribar,44.79548853995508,20.373105568035946,Albatros,44.80152198665929,20.370100912771296,Pharmacy
279,Dr Ivan Ribar,44.79548853995508,20.373105568035946,Studio lepote Friz,44.79997630710068,20.366629574442307,Health & Beauty Service
280,Dr Ivan Ribar,44.79548853995508,20.373105568035946,Mesara Mladenović,44.80169985842562,20.3707848611479,Butcher
281,Dr Ivan Ribar,44.79548853995508,20.373105568035946,Don Vito,44.80189320965519,20.370988530347315,Creperie
282,Dr Ivan Ribar,44.79548853995508,20.373105568035946,Wurst Hill,44.802177,20.371048,BBQ Joint
283,Dr Ivan Ribar,44.79548853995508,20.373105568035946,Stara kafanica,44.80224291518724,20.37117994026107,Restaurant
284,Fontana,44.80537000000004,20.475340000000074,Team Fit,44.804970865354115,20.474277916033177,Gym / Fitness Center
285,Fontana,44.80537000000004,20.475340000000074,Bubble Tea Boom,44.80508201308838,20.4749462736733,Bubble Tea Shop
286,Fontana,44.80537000000004,20.475340000000074,Vulkan City Store,44.80505129573594,20.476136113935144,Bookstore
287,Fontana,44.80537000000004,20.475340000000074,Plato Tehnički fakulteti,44.80521544566502,20.47574251106201,College Quad
288,Fontana,44.80537000000004,20.475340000000074,KST | Klub studenata tehnike,44.80538780966475,20.47576065874842,Nightclub
289,Fontana,44.80537000000004,20.475340000000074,Street Pasta Bar,44.805123112367376,20.47575444917485,Italian Restaurant
290,Fontana,44.80537000000004,20.475340000000074,Simit Sarayi,44.806153795855884,20.473776311077017,Bakery
291,Fontana,44.80537000000004,20.475340000000074,Delfi | Knjižara kod Vuka,44.805247219212,20.475492910175863,Bookstore
292,Fontana,44.80537000000004,20.475340000000074,Women' Secret,44.80519365220542,20.4758938560291,Lingerie Store
293,Fontana,44.80537000000004,20.475340000000074,United Colors of Benetton,44.80489259391036,20.47673406539118,Clothing Store
294,Ledine,44.803130080500885,20.34508002553525,Pečenjara „Ledine”,44.80754091436374,20.358782371115364,BBQ Joint
295,Ledine,44.803130080500885,20.34508002553525,Jovanje,44.80043199099466,20.333651010559546,Eastern European Restaurant
296,Ledine,44.803130080500885,20.34508002553525,Hollywood,44.80231998618749,20.341540791857224,General Entertainment
297,Ledine,44.803130080500885,20.34508002553525,Akva park HollywoodLand,44.80135978138216,20.342394618298275,Water Park
298,Ledine,44.803130080500885,20.34508002553525,Chang Cheng,44.803764809289895,20.343210190087028,Chinese Restaurant
299,Ledine,44.803130080500885,20.34508002553525,Kineski Zid,44.80360418273015,20.343217095343352,Chinese Restaurant
300,Ledine,44.803130080500885,20.34508002553525,Dvor Aleksandar,44.80263829421532,20.34091398318068,Food
301,Ledine,44.803130080500885,20.34508002553525,Etno M,44.805023,20.349066,Burger Joint
302,Ledine,44.803130080500885,20.34508002553525,Apart Hotel K ***,44.805575641608804,20.349021850035268,Hotel
303,Ledine,44.803130080500885,20.34508002553525,Sunce,44.79789599694274,20.348105977468656,Market
304,Ledine,44.803130080500885,20.34508002553525,Mar ***,44.80663,20.352884,Hotel
305,Ledine,44.803130080500885,20.34508002553525,Bela ruža,44.80666519231892,20.3538508737128,Bar
306,Ledine,44.803130080500885,20.34508002553525,Mega Sunce,44.80701574146864,20.35467512190833,Supermarket
307,Ledine,44.803130080500885,20.34508002553525,Vegu-Star d.o.o.,44.80757141113281,20.356464385986328,Grocery Store
308,Ledine,44.803130080500885,20.34508002553525,"Okretnica 73, 94, 95, 602, 604, E1, E6, 7N, 68N",44.807793803374636,20.357485986209493,Bus Station
309,Ledine,44.803130080500885,20.34508002553525,No 1,44.80010076788717,20.329843929847218,Café
310,Ledine,44.803130080500885,20.34508002553525,novo naselje,44.79962629914018,20.329697434017582,Bus Station
311,Ledine,44.803130080500885,20.34508002553525,Aman d.o.o.,44.797304264641575,20.3310855622969,Supermarket
312,Ledine,44.803130080500885,20.34508002553525,Restoran Herc,44.7999531358263,20.328556315082178,BBQ Joint
313,Ledine,44.803130080500885,20.34508002553525,Hacienda Kod Vesne,44.79991779995138,20.328353125245506,Restaurant
314,Ledine,44.803130080500885,20.34508002553525,Okretnica Bežanijska kosa,44.80840583322058,20.363622491596978,Bus Stop
315,Ledine,44.803130080500885,20.34508002553525,Knez Petrol,44.80427671270627,20.325134695396443,Gas Station
316,Mala Ciganlija,44.78870057888568,20.41957585318697,Ada Mall,44.7875776574458,20.41825961505888,Shopping Mall
317,Mala Ciganlija,44.78870057888568,20.41957585318697,Glamoure,44.7878702702855,20.418967934114733,Event Space
318,Mala Ciganlija,44.78870057888568,20.41957585318697,Coffeedream,44.787345,20.418557,Coffee Shop
319,Mala Ciganlija,44.78870057888568,20.41957585318697,The Body Shop,44.788557,20.418436,Cosmetics Shop
320,Mala Ciganlija,44.78870057888568,20.41957585318697,Marina Ada Ciganlija,44.78904557831451,20.417904868445476,Harbor / Marina
321,Mala Ciganlija,44.78870057888568,20.41957585318697,Stajalište gradskog prevoza Ada,44.788242186044414,20.419262148000392,Bus Stop
322,Novi Beograd,44.82373000000007,20.41414000000003,Milenijum osiguranje,44.823708,20.415901,Insurance Office
323,Novi Beograd,44.82373000000007,20.41414000000003,Spomenik Žambilu Žabajevu,44.824352,20.415247,Monument / Landmark
324,Paviljoni,44.81310000000008,20.463290000000033,Sinnerman,44.81324726055465,20.462932754131046,Jazz Club
325,Paviljoni,44.81310000000008,20.463290000000033,Kafeterija | Кафетерија,44.81285187820009,20.46301212346027,Café
326,Savograd,44.81310000000008,20.463290000000033,Sinnerman,44.81324726055465,20.462932754131046,Jazz Club
327,Savograd,44.81310000000008,20.463290000000033,Kafeterija | Кафетерија,44.81285187820009,20.46301212346027,Café
328,Savski Nasip,44.80256103749669,20.408993136964817,Sportki centar Beogradske elektrane,44.80278815985603,20.41159217137591,Athletics & Sports
329,Staro Sajmiste,44.813487218305866,20.441386080550014,So i biber,44.813694669543935,20.442544360038806,Restaurant
330,Staro Sajmiste,44.813487218305866,20.441386080550014,Skate Park,44.815216399462386,20.4405012020295,Skate Park
331,Staro Sajmiste,44.813487218305866,20.441386080550014,Hit auto | Renault dealer,44.81263380689034,20.441436599347128,Auto Dealership
332,Staro Sajmiste,44.813487218305866,20.441386080550014,Stadion F.K. Brodarac,44.812464778635366,20.44402871219264,Soccer Stadium
333,Staro Sajmiste,44.813487218305866,20.441386080550014,Atletski klub NBGD,44.813814978715556,20.442508311720445,Athletics & Sports
334,Staro Sajmiste,44.813487218305866,20.441386080550014,Brodarac,44.81227899166458,20.443711279653915,Bar
335,Studentski Grad,44.825170000000064,20.397650000000056,Radnički,44.82462316767156,20.395628733669867,Restaurant
336,Studentski Grad,44.825170000000064,20.397650000000056,Menza Studentski grad,44.82431859569954,20.39834391536595,Restaurant
337,Studentski Grad,44.825170000000064,20.397650000000056,Sportsko-rekreativni centar Novi Beograd | 11. april,44.826332360447985,20.39451019379159,Athletics & Sports
338,Studentski Grad,44.825170000000064,20.397650000000056,Njam njam,44.82399163729749,20.39765615478138,Sandwich Place
339,Studentski Grad,44.825170000000064,20.397650000000056,Tata,44.82381811231727,20.401929204976692,Creperie
340,Studentski Grad,44.825170000000064,20.397650000000056,Pivnica Tošin bunar | Džakarta,44.82647570201554,20.39871208294823,Gastropub
341,Studentski Grad,44.825170000000064,20.397650000000056,Bife Fontana,44.82373004990167,20.400062399919463,Buffet
342,Studentski Grad,44.825170000000064,20.397650000000056,Fofa pite,44.82616829243675,20.397911797000976,Pie Shop
343,Studentski Grad,44.825170000000064,20.397650000000056,Kafe Bistro,44.82493399110791,20.40012491665399,Café
344,Studentski Grad,44.825170000000064,20.397650000000056,Kokošinjac,44.823749473826176,20.401861775838942,Café
345,Studentski Grad,44.825170000000064,20.397650000000056,Blink,44.82354623973447,20.402514439054407,Café
346,Studentski Grad,44.825170000000064,20.397650000000056,Teniska akademija Tipsarević,44.826119143232305,20.39477935358669,Tennis Court
347,Studentski Grad,44.825170000000064,20.397650000000056,Tipsy time,44.826078666515066,20.394831814163904,Italian Restaurant
348,Studentski Grad,44.825170000000064,20.397650000000056,Dom kulture „Studentski grad”,44.82473730970521,20.400426648950237,Cultural Center
349,Studentski Grad,44.825170000000064,20.397650000000056,Auto servis Adam,44.828339293793995,20.39804810687943,Auto Workshop
350,Studentski Grad,44.825170000000064,20.397650000000056,Domino,44.822937376145106,20.401824515019552,Café
351,Studentski Grad,44.825170000000064,20.397650000000056,Igraonica Biberče,44.82877274850139,20.39847504468865,Indoor Play Area
352,Studentski Grad,44.825170000000064,20.397650000000056,Balkan Bet,44.82602334436058,20.397977247081673,Casino
353,Studentski Grad,44.825170000000064,20.397650000000056,Dabić,44.82680243017393,20.397980372945877,BBQ Joint
354,Studentski Grad,44.825170000000064,20.397650000000056,Aroma,44.8234412846218,20.40237822392274,Supermarket
355,Studentski Grad,44.825170000000064,20.397650000000056,Stadion FK Radnički Novi Beograd,44.824681345254014,20.396745921248357,Soccer Stadium
356,Studentski Grad,44.825170000000064,20.397650000000056,Moj kutak,44.826768738413136,20.397821564868195,Café
357,Studentski Grad,44.825170000000064,20.397650000000056,PastaBocca,44.826565611427704,20.397383313874617,Italian Restaurant
358,Studentski Grad,44.825170000000064,20.397650000000056,Kako je crna,44.82717164842473,20.39732638439714,Coffee Shop
359,Tosin Bunar,44.817500000000045,20.39522000000005,Železnička stanica Tošin bunar,44.81793984561985,20.395065754111297,Train Station
360,Tosin Bunar,44.817500000000045,20.39522000000005,Agacija,44.81905047573,20.39558137687055,Furniture / Home Store
361,Tosin Bunar,44.817500000000045,20.39522000000005,Klub Talija,44.81678261274309,20.39543028996124,Restaurant
362,Tosin Bunar,44.817500000000045,20.39522000000005,Skola Fudbala Olimpik Beograd,44.81670473874438,20.395630187247846,Soccer Field
363,Tosin Bunar,44.817500000000045,20.39522000000005,Autobusko stajalište Tošin bunar,44.81682942538149,20.39526358580481,Bus Stop
364,Univerzitetsko Selo,44.82701001832191,20.41343994113929,Pijaca Novi Beograd,44.827663,20.412827,Farmers Market
365,Usce,44.814510020629605,20.436480015580596,Elixir,44.81549489302463,20.436503331629563,Juice Bar
366,Usce,44.814510020629605,20.436480015580596,Cineplexx,44.815291263608145,20.437509095702666,Multiplex
367,Usce,44.814510020629605,20.436480015580596,Studio lepote Wizard,44.81504758076786,20.437396187345858,Health & Beauty Service
368,Usce,44.814510020629605,20.436480015580596,Vapiano,44.81544264528858,20.436139919116037,Italian Restaurant
369,Usce,44.814510020629605,20.436480015580596,Massimo Dutti,44.81529140320719,20.43746687287361,Clothing Store
370,Usce,44.814510020629605,20.436480015580596,Converse,44.81557736776249,20.43657824781318,Shoe Store
371,Usce,44.814510020629605,20.436480015580596,XYZ,44.81527550631364,20.437489593290206,Clothing Store
372,Usce,44.814510020629605,20.436480015580596,Hyatt Regency Belgrade,44.813003300362666,20.434299946298154,Hotel
373,Usce,44.814510020629605,20.436480015580596,Moritz Eis,44.81548832512049,20.436526400145787,Ice Cream Shop
374,Usce,44.814510020629605,20.436480015580596,Walter,44.815011737704786,20.43682511462639,BBQ Joint
375,Usce,44.814510020629605,20.436480015580596,Ušće Shopping Center,44.81563374022893,20.436596114752334,Shopping Mall
376,Usce,44.814510020629605,20.436480015580596,Mesto za ljubljenje,44.81476696264625,20.43409174159472,Performing Arts Venue
377,Usce,44.814510020629605,20.436480015580596,Top of the Hub,44.81627560974488,20.43708016206296,Restaurant
378,Usce,44.814510020629605,20.436480015580596,Buzz,44.81565587187245,20.43662223966691,Sporting Goods Shop
379,Usce,44.814510020629605,20.436480015580596,Plato Ušće,44.815055059501084,20.43524325110672,Park
380,Usce,44.814510020629605,20.436480015580596,Fashion & Friends,44.815072399725075,20.437302049805357,Clothing Store
381,Usce,44.814510020629605,20.436480015580596,Sephora,44.815568284520054,20.436613577826016,Perfume Shop
382,Usce,44.814510020629605,20.436480015580596,Metropolitan Grill,44.813125852746005,20.434390591070617,Restaurant
383,Usce,44.814510020629605,20.436480015580596,dm-drogerie markt,44.81562209782489,20.436786365270144,Cosmetics Shop
384,Usce,44.814510020629605,20.436480015580596,Snogi,44.815381461478985,20.436732495753148,Dessert Shop
385,Usce,44.814510020629605,20.436480015580596,Tea House,44.813163099100656,20.434603705231666,Tea Room
386,Usce,44.814510020629605,20.436480015580596,Vulkan,44.81561044231523,20.436637635943054,Bookstore
387,Usce,44.814510020629605,20.436480015580596,The Bar,44.81292820541547,20.43415972061141,Hotel Bar
388,Usce,44.814510020629605,20.436480015580596,Zara home,44.815348706923615,20.436241747151616,Furniture / Home Store
389,Blok Braca Maric,44.784925972536925,20.52233943893746,Sportski centar Ranković,44.784424175271695,20.520873069763184,Athletics & Sports
390,Blok Braca Maric,44.784925972536925,20.52233943893746,Njam Njam,44.78349167927883,20.521256155833402,BBQ Joint
391,Blok Branko Momirov,44.81310000000008,20.463290000000033,Sinnerman,44.81324726055465,20.462932754131046,Jazz Club
392,Blok Branko Momirov,44.81310000000008,20.463290000000033,Kafeterija | Кафетерија,44.81285187820009,20.46301212346027,Café
393,Blok Grga Andrijanovic,44.84335000000005,20.415020000000027,Ćiri bu ćiri ba,44.844427854788016,20.41536709122434,Restaurant
394,Blok Grga Andrijanovic,44.84335000000005,20.415020000000027,Park Kej,44.842998875568135,20.415515899658203,Park
395,Blok Grga Andrijanovic,44.84335000000005,20.415020000000027,Pump It Up,44.84400511157111,20.41490646155593,Gym
396,Blok Grga Andrijanovic,44.84335000000005,20.415020000000027,Bellevue,44.84350769257819,20.4131678012416,Pub
397,Blok Grga Andrijanovic,44.84335000000005,20.415020000000027,Crna mačka,44.84382753980648,20.414804290301312,Bar
398,Blok Grga Andrijanovic,44.84335000000005,20.415020000000027,Candy Square,44.8438,20.416496,Creperie
399,Blok Grga Andrijanovic,44.84335000000005,20.415020000000027,Стари Русмир | Stari Rusmir,44.84437993179316,20.414423864037214,Restaurant
400,Blok Sutjeska,44.8405155,20.380974750000018,Mićina domaća kujna,44.84266415812731,20.3816556930542,Restaurant
401,Blok Sutjeska,44.8405155,20.380974750000018,Muscle Factory Gym,44.83927553204971,20.382992657760415,Sports Club
402,Blok Sutjeska,44.8405155,20.380974750000018,Leskovački roštilj Bum 016,44.84252695167863,20.382503710516296,BBQ Joint
403,Blok Sutjeska,44.8405155,20.380974750000018,Lukoil | BS Prvomajska,44.84300059006654,20.379220203035672,Gas Station
404,Blok Sutjeska,44.8405155,20.380974750000018,Kafanica pod lozom,44.83752034886726,20.383361620587184,Café
405,Blok Zaga Malivuk,44.81310000000008,20.463290000000033,Sinnerman,44.81324726055465,20.462932754131046,Jazz Club
406,Blok Zaga Malivuk,44.81310000000008,20.463290000000033,Kafeterija | Кафетерија,44.81285187820009,20.46301212346027,Café
407,Bogoslovija,44.81528828581475,20.48994553205405,Heritage,44.81336760143121,20.489056219933474,Hotel
408,Bogoslovija,44.81528828581475,20.48994553205405,Hala „Aleksandar Nikolić” | Pionir,44.81549524754222,20.485139059828978,Basketball Stadium
409,Bogoslovija,44.81528828581475,20.48994553205405,Tika's,44.81450209735628,20.495250065905985,Restaurant
410,Bogoslovija,44.81528828581475,20.48994553205405,Drugstore Garden,44.81896017214057,20.488388853431804,Nightclub
411,Bogoslovija,44.81528828581475,20.48994553205405,Papa Joe,44.81270510734935,20.485214709852812,Diner
412,Bogoslovija,44.81528828581475,20.48994553205405,Wood Caffe,44.81611161845719,20.492851589909783,Café
413,Bogoslovija,44.81528828581475,20.48994553205405,Bitef Art Cafe,44.816901833620555,20.48577450465289,Nightclub
414,Bogoslovija,44.81528828581475,20.48994553205405,Ledena dvorana Pionir,44.81593747747044,20.484102170928075,Hockey Arena
415,Bogoslovija,44.81528828581475,20.48994553205405,Enso fine dining,44.81697082867343,20.485665752301642,Comfort Food Restaurant
416,Bogoslovija,44.81528828581475,20.48994553205405,TK Crvena zvezda,44.81450594291465,20.49018047181506,Tennis Court
417,Bogoslovija,44.81528828581475,20.48994553205405,Sportska akademija Kočović,44.81561405969505,20.484952396537526,Gym / Fitness Center
418,Bogoslovija,44.81528828581475,20.48994553205405,Fabrika,44.81896345000528,20.488310169487907,Nightclub
419,Bogoslovija,44.81528828581475,20.48994553205405,Drugstore,44.81890570429048,20.488862366079633,Nightclub
420,Bogoslovija,44.81528828581475,20.48994553205405,Good Food,44.81461793909575,20.490796324788004,Burger Joint
421,Bogoslovija,44.81528828581475,20.48994553205405,Bajka,44.81332323924308,20.489443251631513,Café
422,Bogoslovija,44.81528828581475,20.48994553205405,Studentska menza „Karaburma”,44.813804610327935,20.488639432325883,Restaurant
423,Bogoslovija,44.81528828581475,20.48994553205405,iDEA,44.81711392916384,20.484941081914236,Supermarket
424,Bogoslovija,44.81528828581475,20.48994553205405,Omladinski stadion | OFK Beograd,44.81478323261351,20.495978698649974,Soccer Stadium
425,Bogoslovija,44.81528828581475,20.48994553205405,Plan B,44.816617953413086,20.48599124793498,Nightclub
426,Bogoslovija,44.81528828581475,20.48994553205405,Centar za kulturu „Vlada Divljan”,44.816924241297166,20.48545233668755,Cultural Center
427,Bogoslovija,44.81528828581475,20.48994553205405,Codex,44.8175680670043,20.49466169979284,Hookah Bar
428,Bogoslovija,44.81528828581475,20.48994553205405,"Okretnica Pančevački most (33, 37, 48, 58)",44.81960200970007,20.489507317543026,Bus Station
429,Bogoslovija,44.81528828581475,20.48994553205405,Železnička stanica Pančevački most,44.81964281762208,20.490113123967717,Train Station
430,Calije,44.80502557353021,20.52024117657397,Hector's Cuban Caffe,44.80479889146312,20.521381441773716,Café
431,Calije,44.80502557353021,20.52024117657397,WFF,44.8047839170888,20.52139524937859,Chinese Restaurant
432,Calije,44.80502557353021,20.52024117657397,Lesko žar,44.80479844780896,20.521382589227468,BBQ Joint
433,Calije,44.80502557353021,20.52024117657397,Raša,44.80479005040808,20.521399781649933,Bakery
434,Calije,44.80502557353021,20.52024117657397,Maxi,44.80478718276446,20.52139642686733,Supermarket
435,Calije,44.80502557353021,20.52024117657397,Fikatraaa,44.80473505212553,20.521443671291102,Convenience Store
436,Calije,44.80502557353021,20.52024117657397,Burger Plus,44.80479803350529,20.521334226979636,Burger Joint
437,Calije,44.80502557353021,20.52024117657397,Tr Deni,44.80508214546118,20.51796325265172,Grocery Store
438,Calije,44.80502557353021,20.52024117657397,Teretana Spok,44.80480718890936,20.521390584267994,Gym
439,Calije,44.80502557353021,20.52024117657397,Auto Centar Line,44.80513040937658,20.517810291845045,Auto Garage
440,Calije,44.80502557353021,20.52024117657397,Mala Columbia,44.805463608559386,20.523043946504732,Park
441,Calije,44.80502557353021,20.52024117657397,Pekara Ćalije,44.80565691069686,20.517254698531055,Bakery
442,Calije,44.80502557353021,20.52024117657397,MaxBet,44.80689681651111,20.52200471494695,Casino
443,Calije,44.80502557353021,20.52024117657397,Okretnica gradskog prevoza Karaburma II,44.80705060457775,20.522224594416258,Bus Stop
444,Caplja,44.81310000000008,20.463290000000033,Sinnerman,44.81324726055465,20.462932754131046,Jazz Club
445,Caplja,44.81310000000008,20.463290000000033,Kafeterija | Кафетерија,44.81285187820009,20.46301212346027,Café
446,Deponija,44.81310000000008,20.463290000000033,Sinnerman,44.81324726055465,20.462932754131046,Jazz Club
447,Deponija,44.81310000000008,20.463290000000033,Kafeterija | Кафетерија,44.81285187820009,20.46301212346027,Café
448,Dunav City,44.81310000000008,20.463290000000033,Sinnerman,44.81324726055465,20.462932754131046,Jazz Club
449,Dunav City,44.81310000000008,20.463290000000033,Kafeterija | Кафетерија,44.81285187820009,20.46301212346027,Café
450,Dunavski Venac,44.82733595764717,20.44629539575988,Obala majora Dragutina Gavrilovića | Dunavski kej,44.82738680182474,20.446414947509766,Pedestrian Plaza
451,Dunavski Venac,44.82733595764717,20.44629539575988,Jaram na vodi,44.82668538423851,20.44537295555925,Bar
452,Dunavski Venac,44.82733595764717,20.44629539575988,Kalemegdan | Donji grad,44.826842,20.45022,Dog Run
453,Dunavski Venac,44.82733595764717,20.44629539575988,Kula Nebojša,44.82650633641123,20.44674785947846,History Museum
454,Dunavski Venac,44.82733595764717,20.44629539575988,Брод | Brod,44.8275,20.445726,Lounge
455,Dunavski Venac,44.82733595764717,20.44629539575988,Barutana,44.82391802952335,20.447630093206783,Nightclub
456,Dunavski Venac,44.82733595764717,20.44629539575988,Kalemegdanska terasa,44.82564960591948,20.45170431390582,Eastern European Restaurant
457,Dunavski Venac,44.82733595764717,20.44629539575988,Vodenica,44.8261197171339,20.44508291403218,Seafood Restaurant
458,Dunavski Venac,44.82733595764717,20.44629539575988,Opservatorija | Astronomsko društvo Ruđer Bošković,44.82494118443012,20.450787791878895,Planetarium
459,Dunavski Venac,44.82733595764717,20.44629539575988,Teniski centar Novak,44.82951066551873,20.451196095064557,Tennis Court
460,Dunavski Venac,44.82733595764717,20.44629539575988,Viva,44.83033664226287,20.449916429809992,Italian Restaurant
461,Dunavski Venac,44.82733595764717,20.44629539575988,Čekaonica na vodi,44.827425653697325,20.445677607755268,Jazz Club
462,Dunavski Venac,44.82733595764717,20.44629539575988,Novak,44.82950258693715,20.451044080306012,Restaurant
463,Dunavski Venac,44.82733595764717,20.44629539575988,Sokače,44.82845759253213,20.451868685108902,Eastern European Restaurant
464,Dunavski Venac,44.82733595764717,20.44629539575988,Veliki barutni magacin (Barutana),44.823867435438274,20.447604324188138,Event Space
465,Dunavski Venac,44.82733595764717,20.44629539575988,Druga kuća | Gaučosi,44.82879088140693,20.451787895634613,Nightclub
466,Dunavski Venac,44.82733595764717,20.44629539575988,Pizzeria Tvrđava,44.82598010919,20.45175112863235,Pizza Place
467,Dunavski Venac,44.82733595764717,20.44629539575988,Kalemegdan,44.826035,20.445864,Park
468,Dunavski Venac,44.82733595764717,20.44629539575988,Avantura,44.826949525181604,20.445772903039217,Bar
469,Dunavski Venac,44.82733595764717,20.44629539575988,Brod „Riga od Fere”,44.82730699553477,20.445996292317083,Boat or Ferry
470,Dunavski Venac,44.82733595764717,20.44629539575988,Les Enfants Terribles | Grozna deca,44.828386196687205,20.4488522389939,Nightclub
471,Dunavski Venac,44.82733595764717,20.44629539575988,Sprave na otvorenom 25. maj,44.82869210294915,20.448982305212528,Gym / Fitness Center
472,Dunavski Venac,44.82733595764717,20.44629539575988,Admiral,44.82957443152827,20.448951486249264,Pub
473,Dunavski Venac,44.82733595764717,20.44629539575988,Stadion FK Dorćol,44.82833446565956,20.449574795112678,Soccer Stadium
474,Dunavski Venac,44.82733595764717,20.44629539575988,"""Svako dobro"" splav",44.83017455162685,20.44970699264871,Bistro
475,Dunavski Venac,44.82733595764717,20.44629539575988,Defterdarova kapija,44.824105,20.448967,Castle
476,Dunavski Venac,44.82733595764717,20.44629539575988,Wooloomooloo splav,44.83023476513261,20.44965427204191,Bar
477,Dunavski Venac,44.82733595764717,20.44629539575988,Dizdareva kula,44.824998,20.450589,Historic Site
478,Dunavski Venac,44.82733595764717,20.44629539575988,Stadion F.K. GSP Polet,44.82844235279656,20.451622205858843,Soccer Stadium
479,Dunavski Venac,44.82733595764717,20.44629539575988,Česma Mehmed paše Sokolovića,44.823870628511415,20.449494953689925,Well
480,Dunavski Venac,44.82733595764717,20.44629539575988,Oh! Cinema!,44.825506229825116,20.451592685367487,Bar
481,Hadzipopovac,44.81123000000007,20.482140000000072,Profesorska kolonija,44.812125113634046,20.480728401154387,Neighborhood
482,Hadzipopovac,44.81123000000007,20.482140000000072,Džidži Midži,44.811844301786266,20.480130927881525,Café
483,Hadzipopovac,44.81123000000007,20.482140000000072,Zlatar,44.81258593189171,20.482797433931403,Restaurant
484,Hadzipopovac,44.81123000000007,20.482140000000072,Mama Leone,44.8104213538551,20.480978993268614,Café
485,Karaburma,44.80796003332558,20.524410066074168,Gogo Grill,44.80808604814365,20.52218395168185,Fast Food Restaurant
486,Karaburma,44.80796003332558,20.524410066074168,Čobanov lad,44.80889531516469,20.521308237919143,Eastern European Restaurant
487,Karaburma,44.80796003332558,20.524410066074168,Bambi,44.807322208336,20.52220153528461,Grocery Store
488,Karaburma,44.80796003332558,20.524410066074168,MaxBet,44.80689681651111,20.52200471494695,Casino
489,Karaburma II,44.81509500000001,20.50634025,Monument,44.81718472398495,20.50823678950606,Italian Restaurant
490,Karaburma II,44.81509500000001,20.50634025,Skroz dobra pekara,44.814694757657364,20.506262141593112,Bakery
491,Karaburma II,44.81509500000001,20.50634025,Medolino,44.81490203639362,20.506015624432774,Creperie
492,Karaburma II,44.81509500000001,20.50634025,Non Stop Fitness,44.81636838598354,20.50454755320946,Gym / Fitness Center
493,Karaburma II,44.81509500000001,20.50634025,iDEA,44.81686068796035,20.507654338882297,Supermarket
494,Karaburma II,44.81509500000001,20.50634025,Stajalište gradskog prevoza Patrisa Lumumbe,44.81470480264777,20.506306203862668,Bus Stop
495,Karaburma II,44.81509500000001,20.50634025,Pull&Bear,44.816853,20.50731,Clothing Store
496,Karaburma II,44.81509500000001,20.50634025,Reserved,44.816834,20.508285,Clothing Store
497,Karaburma II,44.81509500000001,20.50634025,Asia Food,44.81682,20.508541,Asian Restaurant
498,Karaburma-Dunav,44.81391000000008,20.517030000000037,Perfect Line,44.81404076981182,20.518946652321233,Gym / Fitness Center
499,Karaburma-Dunav,44.81391000000008,20.517030000000037,Nova city Hotel,44.8143918634915,20.518769988570387,Hotel
500,Karaburma-Dunav,44.81391000000008,20.517030000000037,Skroz dobra pekara,44.81296310459734,20.51806199156983,Bakery
501,Karaburma-Dunav,44.81391000000008,20.517030000000037,"""Naša"" prodavnica",44.81396308485188,20.517831009041753,Grocery Store
502,Karaburma-Dunav,44.81391000000008,20.517030000000037,Sun Moon Star,44.81373197711499,20.518880002513804,Gym
503,Karaburma-Dunav,44.81391000000008,20.517030000000037,Pijaca Karaburma,44.813967964478856,20.517778900310578,Farmers Market
504,Karaburma-Dunav,44.81391000000008,20.517030000000037,Jumbo Kids,44.81399294187843,20.518587050174926,Café
505,Karaburma-Dunav,44.81391000000008,20.517030000000037,Knjižara Protos DOO,44.813852562679976,20.517866096344047,Arts & Crafts Store
506,Karaburma-Dunav,44.81391000000008,20.517030000000037,Stara okretnica Karaburma,44.81285890623818,20.518083572387695,Bus Stop
507,Karaburma-Dunav,44.81391000000008,20.517030000000037,Aroma,44.814101,20.51859,Food & Drink Shop
508,Karaburma-Dunav,44.81391000000008,20.517030000000037,Hotel Karaburma,44.813583,20.516813,Hotel
509,Karaburma-Dunav,44.81391000000008,20.517030000000037,Zlatni bik,44.815845195288645,20.515171654156354,BBQ Joint
510,Karaburma-Dunav,44.81391000000008,20.517030000000037,Pizzeria ''Samo Malo'',44.81172270096053,20.51573839691897,Pizza Place
511,Kotez,44.785329981678174,20.517409963356343,Skroz dobra pekara,44.78414831814658,20.518089100632235,Bakery
512,Kotez,44.785329981678174,20.517409963356343,Ustanička | Okretnica,44.78446475076979,20.51778063100973,Bus Station
513,Kotez,44.785329981678174,20.517409963356343,Halo Leskovac,44.7841275103522,20.51793185191661,BBQ Joint
514,Kotez,44.785329981678174,20.517409963356343,Pink Panter,44.78366020412514,20.517175949476773,BBQ Joint
515,Kotez,44.785329981678174,20.517409963356343,Mesara Milan,44.78406611662022,20.518471763752217,Butcher
516,Kozara,44.785264500000004,20.46225150000001,Avala,44.78328740922806,20.462785118704453,Restaurant
517,Kozara,44.785264500000004,20.46225150000001,Ljutica,44.78294975640606,20.46226825574263,Bar
518,Kozara,44.785264500000004,20.46225150000001,SD Crvena Zvezda,44.78505133856243,20.46302769416455,Athletics & Sports
519,Kozara,44.785264500000004,20.46225150000001,Red Cafe,44.78291504791655,20.463325613438908,Café
520,Kozara,44.785264500000004,20.46225150000001,Zvezda Lounge Bar,44.78294594702389,20.463352606671602,Lounge
521,Kozara,44.785264500000004,20.46225150000001,Laterna,44.78381787117594,20.46273865681313,Café
522,Kozara,44.785264500000004,20.46225150000001,Shop&Go,44.786956421326366,20.462893635621754,Market
523,Kozara,44.785264500000004,20.46225150000001,Terra Rossa,44.78477899771187,20.46297031018813,Pizza Place
524,Kozara,44.785264500000004,20.46225150000001,Muzej FK Crvena zvezda,44.7832971556697,20.463151931762695,Museum
525,Kozara,44.785264500000004,20.46225150000001,"Butik „Delije""",44.78332603794665,20.463453409324508,Boutique
526,Krnjaca,44.81310000000008,20.463290000000033,Sinnerman,44.81324726055465,20.462932754131046,Jazz Club
527,Krnjaca,44.81310000000008,20.463290000000033,Kafeterija | Кафетерија,44.81285187820009,20.46301212346027,Café
528,Lesce,44.811540000000036,20.54413000000005,Winner,44.81262345392182,20.540171514672373,Café
529,Lesce,44.811540000000036,20.54413000000005,Euphoria beauty studio,44.81339549131448,20.54118812084198,Salon / Barbershop
530,Lesce,44.811540000000036,20.54413000000005,Perfect Line Banja,44.81340427243834,20.541093093815693,Gym
531,Mika Alas,44.81310000000008,20.463290000000033,Sinnerman,44.81324726055465,20.462932754131046,Jazz Club
532,Mika Alas,44.81310000000008,20.463290000000033,Kafeterija | Кафетерија,44.81285187820009,20.46301212346027,Café
533,Nova Karaburma,44.81509500000001,20.50634025,Monument,44.81718472398495,20.50823678950606,Italian Restaurant
534,Nova Karaburma,44.81509500000001,20.50634025,Skroz dobra pekara,44.814694757657364,20.506262141593112,Bakery
535,Nova Karaburma,44.81509500000001,20.50634025,Medolino,44.81490203639362,20.506015624432774,Creperie
536,Nova Karaburma,44.81509500000001,20.50634025,Non Stop Fitness,44.81636838598354,20.50454755320946,Gym / Fitness Center
537,Nova Karaburma,44.81509500000001,20.50634025,iDEA,44.81686068796035,20.507654338882297,Supermarket
538,Nova Karaburma,44.81509500000001,20.50634025,Stajalište gradskog prevoza Patrisa Lumumbe,44.81470480264777,20.506306203862668,Bus Stop
539,Nova Karaburma,44.81509500000001,20.50634025,Pull&Bear,44.816853,20.50731,Clothing Store
540,Nova Karaburma,44.81509500000001,20.50634025,Reserved,44.816834,20.508285,Clothing Store
541,Nova Karaburma,44.81509500000001,20.50634025,Asia Food,44.81682,20.508541,Asian Restaurant
542,Paliula,44.811180000000036,20.47897000000006,Реалист | Realist,44.811329984384834,20.477868965549487,Beer Bar
543,Paliula,44.811180000000036,20.47897000000006,Cigla&Krigla,44.811181539562206,20.477932221550674,Pub
544,Paliula,44.811180000000036,20.47897000000006,Profesorska kolonija,44.812125113634046,20.480728401154387,Neighborhood
545,Paliula,44.811180000000036,20.47897000000006,Džidži Midži,44.811844301786266,20.480130927881525,Café
546,Paliula,44.811180000000036,20.47897000000006,Trifunović,44.81050484836215,20.478956133474842,Bakery
547,Paliula,44.811180000000036,20.47897000000006,Caviar,44.81044825304447,20.47890414602271,Modern European Restaurant
548,Paliula,44.811180000000036,20.47897000000006,Parkić,44.81068704873274,20.478829126224017,Playground
549,Paliula,44.811180000000036,20.47897000000006,Parkić,44.81109857169051,20.479466265971414,Café
550,Paliula,44.811180000000036,20.47897000000006,Stih,44.81114820826562,20.4794663704163,Café
551,Partizanski Blok,44.77144418421136,20.535666108771828,Zdrava hrana,44.77145194808854,20.5365609726163,Health Food Store
552,Partizanski Blok,44.77144418421136,20.535666108771828,Jablanica MP,44.77583570672757,20.53764042113992,Grocery Store
553,Partizanski Blok,44.77144418421136,20.535666108771828,Motel Konak,44.76581671854192,20.533606828131806,Bed & Breakfast
554,Partizanski Blok,44.77144418421136,20.535666108771828,Vidovdan,44.77659272006688,20.539834707758573,Restaurant
555,Partizanski Blok,44.77144418421136,20.535666108771828,Eurodom,44.7656779195137,20.533148481122435,Furniture / Home Store
556,Profesorska Kolonija,44.751357584364776,20.478126964631606,Pavone,44.751231476268295,20.480709497571382,Pizza Place
557,Profesorska Kolonija,44.751357584364776,20.478126964631606,Maxi,44.75079,20.480952,Supermarket
558,Profesorska Kolonija,44.751357584364776,20.478126964631606,Maxi,44.75181467389428,20.47732282246565,Supermarket
559,Profesorska Kolonija,44.751357584364776,20.478126964631606,Change me,44.75269140392613,20.476951065307066,Outlet Store
560,Profesorska Kolonija,44.751357584364776,20.478126964631606,Diskont | Okretnica,44.751602082712466,20.480385873269555,Building
561,Profesorska Kolonija,44.751357584364776,20.478126964631606,Triada,44.75162,20.480793,Chinese Restaurant
562,Reva,44.81310000000008,20.463290000000033,Sinnerman,44.81324726055465,20.462932754131046,Jazz Club
563,Reva,44.81310000000008,20.463290000000033,Kafeterija | Кафетерија,44.81285187820009,20.46301212346027,Café
564,Stara Karaburma,44.81604000000005,20.501430000000028,Non Stop Fitness,44.81636838598354,20.50454755320946,Gym / Fitness Center
565,Stara Karaburma,44.81604000000005,20.501430000000028,iDEA,44.81646110248974,20.499586948200495,Supermarket
566,Stara Karaburma,44.81604000000005,20.501430000000028,siroko srce,44.81679595690917,20.49966621342826,Brewery
567,Stara Karaburma,44.81604000000005,20.501430000000028,Metro obuća,44.81752873772107,20.50407187158239,Shoe Store
568,Tasmajdan,44.807600000000036,20.47375000000005,Mali Tašmajdan,44.807934268201606,20.474116802215576,Park
569,Tasmajdan,44.807600000000036,20.47375000000005,Metropol Palace,44.8068256265777,20.473872042991616,Hotel
570,Tasmajdan,44.807600000000036,20.47375000000005,SRC Tašmajdan,44.808844792322205,20.473707834025497,Pool
571,Tasmajdan,44.807600000000036,20.47375000000005,OUR BAR,44.808603065471864,20.473601356458747,Bar
572,Tasmajdan,44.807600000000036,20.47375000000005,Limegrove,44.80680256104421,20.473568927808607,Gym / Fitness Center
573,Tasmajdan,44.807600000000036,20.47375000000005,Atrijum,44.80752454199826,20.475281464764006,Café
574,Tasmajdan,44.807600000000036,20.47375000000005,El Derecho,44.80794992093721,20.472830368804477,Café
575,Tasmajdan,44.807600000000036,20.47375000000005,Arhiv Srbije,44.806964935869296,20.474927488377123,Historic Site
576,Viline Vode,44.820468020034205,20.47714294908211,Allure Caramel Hotel,44.819734705801274,20.47416911623692,Hotel
577,Viline Vode,44.820468020034205,20.47714294908211,Ђура | Đura,44.819441548088754,20.473780446313476,Bar
578,Viline Vode,44.820468020034205,20.47714294908211,Luwak,44.817503,20.476677,Café
579,Viline Vode,44.820468020034205,20.47714294908211,Iron Republic,44.81705670555307,20.476525794792707,Gym
580,Viline Vode,44.820468020034205,20.47714294908211,Fini,44.820593919423764,20.471532595221397,Dessert Shop
581,Viline Vode,44.820468020034205,20.47714294908211,Just A Maestro,44.81898446756882,20.471772211190576,Restaurant
582,Viline Vode,44.820468020034205,20.47714294908211,Kafograf,44.8170744578733,20.474226657677935,Coffee Shop
583,Viline Vode,44.820468020034205,20.47714294908211,Roštilj Žuća,44.819755696201305,20.471362053039496,BBQ Joint
584,Viline Vode,44.820468020034205,20.47714294908211,eXtreme gym,44.81984102852976,20.471308654915674,Gym / Fitness Center
585,Viline Vode,44.820468020034205,20.47714294908211,Trem,44.81833810096076,20.47502354200066,Seafood Restaurant
586,Viline Vode,44.820468020034205,20.47714294908211,Stara Hercegovina,44.819138973545314,20.474239627991306,Restaurant
587,Viline Vode,44.820468020034205,20.47714294908211,XL Fitness Factory,44.81683551093465,20.480058729443364,Gym
588,Viline Vode,44.820468020034205,20.47714294908211,Prava pljeskavica,44.81624172651846,20.47654068403874,BBQ Joint
589,Viline Vode,44.820468020034205,20.47714294908211,Puškin,44.81901660971531,20.47182379776447,Bar
590,Viline Vode,44.820468020034205,20.47714294908211,Just & Lobby,44.821172020146875,20.47690884284399,Eastern European Restaurant
591,Viline Vode,44.820468020034205,20.47714294908211,Extreme Kids,44.8199171176908,20.47127768040515,Playground
592,Viline Vode,44.820468020034205,20.47714294908211,Resrota,44.82262383455191,20.473468584233206,Auto Garage
593,Vilingrad,44.81310000000008,20.463290000000033,Sinnerman,44.81324726055465,20.462932754131046,Jazz Club
594,Vilingrad,44.81310000000008,20.463290000000033,Kafeterija | Кафетерија,44.81285187820009,20.46301212346027,Café
595,Visnjica,44.814870000000035,20.47017000000005,Pomodoro,44.81516999204813,20.469540409010147,Pizza Place
596,Visnjica,44.814870000000035,20.47017000000005,Manhattan,44.81439337418673,20.46952822024437,Café
597,Visnjica,44.814870000000035,20.47017000000005,Shpitza,44.814751754383764,20.47010208138781,Café
598,Visnjica,44.814870000000035,20.47017000000005,Mali princ,44.81444554842932,20.469237272157105,Dessert Shop
599,Visnjica,44.814870000000035,20.47017000000005,Beverly,44.81442379732082,20.469285400603184,Café
600,Visnjica,44.814870000000035,20.47017000000005,Libre,44.815000639221665,20.470847164941826,Bar
601,Visnjica,44.814870000000035,20.47017000000005,eXM Caffe,44.81440309827376,20.469546858113,Coffee Shop
602,Visnjicka Banja,44.817084201244334,20.54173057474099,iDEA,44.816649144958504,20.539884567260742,Supermarket
603,Visnjicka Banja,44.817084201244334,20.54173057474099,Glinara,44.81696418216997,20.54028024235942,Trail
604,Visnjicka Banja,44.817084201244334,20.54173057474099,Pirke,44.81725199896782,20.54478592800393,Restaurant
605,Visnjicka Banja,44.817084201244334,20.54173057474099,Košarkaski tereni Banja,44.81664545731229,20.538348442506763,Basketball Court
606,Jelezovac,44.71400877739386,20.46254215754175,Maxi,44.713452715043296,20.46338286702301,Supermarket
607,Jelezovac,44.71400877739386,20.46254215754175,Tržni centar Resnik,44.713215655219294,20.46153248436336,Neighborhood
608,Kanarevo Brdo,44.75583155968134,20.45825279186233,Čačanin,44.75668043997455,20.459938519656404,Restaurant
609,Kanarevo Brdo,44.75583155968134,20.45825279186233,Katun,44.757056456908934,20.456468684862788,Restaurant
610,Kanarevo Brdo,44.75583155968134,20.45825279186233,Fitness centar AS,44.75447996887286,20.45639435257421,Gym
611,Kanarevo Brdo,44.75583155968134,20.45825279186233,Teniski Klub Topaco,44.75625581759605,20.455893327703848,Tennis Court
612,Kanarevo Brdo,44.75583155968134,20.45825279186233,Kolonija,44.75672232813338,20.452953911056856,Beer Bar
613,Kanarevo Brdo,44.75583155968134,20.45825279186233,Mesara Mladenović,44.75725510309343,20.459905633750935,Butcher
614,Kanarevo Brdo,44.75583155968134,20.45825279186233,ЋОШ∀К | Ćošak,44.75412866386465,20.451969708323354,Bar
615,Kanarevo Brdo,44.75583155968134,20.45825279186233,Kanarevo brdo,44.753347539151434,20.45551693489779,Neighborhood
616,Kanarevo Brdo,44.75583155968134,20.45825279186233,Homer,44.75264325648554,20.455142680615513,Pizza Place
617,Kanarevo Brdo,44.75583155968134,20.45825279186233,Rojo Bar,44.75470089151173,20.45640597753067,Café
618,Kanarevo Brdo,44.75583155968134,20.45825279186233,Tehnomanija,44.752697148648295,20.45590332513669,Electronics Store
619,Kanarevo Brdo,44.75583155968134,20.45825279186233,Maxi,44.75270643412213,20.45531108144334,Grocery Store
620,Kanarevo Brdo,44.75583155968134,20.45825279186233,Sportski centar Slodes,44.75637415463705,20.461206904501612,Athletics & Sports
621,Kanarevo Brdo,44.75583155968134,20.45825279186233,Costa Azzura,44.757057,20.459896,Bakery
622,Kanarevo Brdo,44.75583155968134,20.45825279186233,Pekara LaLa,44.755434264017275,20.4566469068143,Bakery
623,Kanarevo Brdo,44.75583155968134,20.45825279186233,Stajalište gradskog prevoza Pere Velimirovića,44.75723,20.45996,Bus Stop
624,Kanarevo Brdo,44.75583155968134,20.45825279186233,Hobotnica,44.756895888188566,20.460384814593706,Car Wash
625,Kanarevo Brdo,44.75583155968134,20.45825279186233,Slodes ***,44.75646834467647,20.460973276855672,Hotel
626,Kanarevo Brdo,44.75583155968134,20.45825279186233,Diskont pića DIV,44.75751876831055,20.455427169799805,Liquor Store
627,Kanarevo Brdo,44.75583155968134,20.45825279186233,Mala Slavija,44.7563937358537,20.453128343314493,Plaza
628,Kanarevo Brdo,44.75583155968134,20.45825279186233,ETC servis,44.757047201721285,20.45315700152225,Electronics Store
629,Kanarevo Brdo,44.75583155968134,20.45825279186233,Pijaca Stari Košutnjak,44.757288518125186,20.45282959342114,Farmers Market
630,Kanarevo Brdo,44.75583155968134,20.45825279186233,Aman,44.75709368569893,20.452085909735157,Market
631,Kanarevo Brdo,44.75583155968134,20.45825279186233,Fitness Studio Feel Life,44.75415915850651,20.452064240731374,Athletics & Sports
632,Kanarevo Brdo,44.75583155968134,20.45825279186233,Ragina glava,44.75415764177513,20.45197960167221,Pub
633,Kanarevo Brdo,44.75583155968134,20.45825279186233,Modna kuća Balašević,44.75680586119065,20.451393127441406,Boutique
634,Knezevac,44.733522365199995,20.437821282585837,"Okretnica Kneževac | 3, 37, 37N",44.73403811042762,20.431888833136327,Bus Station
635,Knezevac,44.733522365199995,20.437821282585837,Drvce,44.73833229612881,20.43862309515816,Bar
636,Knezevac,44.733522365199995,20.437821282585837,Železnička stanica Kneževac,44.732102299127384,20.430866289570986,Train Station
637,Miljakovac,44.74732051294229,20.450566122688876,Slon,44.74809076549393,20.450161756582922,Bar
638,Miljakovac,44.74732051294229,20.450566122688876,La Perla,44.747162747755695,20.447915533394877,Café
639,Miljakovac,44.74732051294229,20.450566122688876,Kod dobrog domaćina,44.74841975615056,20.453092183276834,Fast Food Restaurant
640,Miljakovac,44.74732051294229,20.450566122688876,Good Food Dak,44.748512415355925,20.453247885710166,BBQ Joint
641,Miljakovac,44.74732051294229,20.450566122688876,Lilly Drogerie,44.74612323026698,20.45147573179936,Cosmetics Shop
642,Miljakovac,44.74732051294229,20.450566122688876,Puna Kapa,44.748155393147634,20.45025242194585,BBQ Joint
643,Miljakovac,44.74732051294229,20.450566122688876,"Pekara ""Mihajlović""",44.748273660784704,20.451389134658218,Bakery
644,Miljakovac,44.74732051294229,20.450566122688876,Maxi,44.745289815269196,20.45151717891601,Grocery Store
645,Miljakovac,44.74732051294229,20.450566122688876,Robna kuća Beograd,44.75042877026676,20.4490864276886,Department Store
646,Miljakovac,44.74732051294229,20.450566122688876,dm-drogerie markt,44.75041491412667,20.44904535072961,Cosmetics Shop
647,Miljakovac,44.74732051294229,20.450566122688876,JYSK,44.750535441851504,20.449102520942688,Furniture / Home Store
648,Miljakovac I,44.74732051294229,20.450566122688876,Slon,44.74809076549393,20.450161756582922,Bar
649,Miljakovac I,44.74732051294229,20.450566122688876,La Perla,44.747162747755695,20.447915533394877,Café
650,Miljakovac I,44.74732051294229,20.450566122688876,Kod dobrog domaćina,44.74841975615056,20.453092183276834,Fast Food Restaurant
651,Miljakovac I,44.74732051294229,20.450566122688876,Good Food Dak,44.748512415355925,20.453247885710166,BBQ Joint
652,Miljakovac I,44.74732051294229,20.450566122688876,Lilly Drogerie,44.74612323026698,20.45147573179936,Cosmetics Shop
653,Miljakovac I,44.74732051294229,20.450566122688876,Puna Kapa,44.748155393147634,20.45025242194585,BBQ Joint
654,Miljakovac I,44.74732051294229,20.450566122688876,"Pekara ""Mihajlović""",44.748273660784704,20.451389134658218,Bakery
655,Miljakovac I,44.74732051294229,20.450566122688876,Maxi,44.745289815269196,20.45151717891601,Grocery Store
656,Miljakovac I,44.74732051294229,20.450566122688876,Robna kuća Beograd,44.75042877026676,20.4490864276886,Department Store
657,Miljakovac I,44.74732051294229,20.450566122688876,dm-drogerie markt,44.75041491412667,20.44904535072961,Cosmetics Shop
658,Miljakovac I,44.74732051294229,20.450566122688876,JYSK,44.750535441851504,20.449102520942688,Furniture / Home Store
659,Miljakovac II,44.74732051294229,20.450566122688876,Slon,44.74809076549393,20.450161756582922,Bar
660,Miljakovac II,44.74732051294229,20.450566122688876,La Perla,44.747162747755695,20.447915533394877,Café
661,Miljakovac II,44.74732051294229,20.450566122688876,Kod dobrog domaćina,44.74841975615056,20.453092183276834,Fast Food Restaurant
662,Miljakovac II,44.74732051294229,20.450566122688876,Good Food Dak,44.748512415355925,20.453247885710166,BBQ Joint
663,Miljakovac II,44.74732051294229,20.450566122688876,Lilly Drogerie,44.74612323026698,20.45147573179936,Cosmetics Shop
664,Miljakovac II,44.74732051294229,20.450566122688876,Puna Kapa,44.748155393147634,20.45025242194585,BBQ Joint
665,Miljakovac II,44.74732051294229,20.450566122688876,"Pekara ""Mihajlović""",44.748273660784704,20.451389134658218,Bakery
666,Miljakovac II,44.74732051294229,20.450566122688876,Maxi,44.745289815269196,20.45151717891601,Grocery Store
667,Miljakovac II,44.74732051294229,20.450566122688876,Robna kuća Beograd,44.75042877026676,20.4490864276886,Department Store
668,Miljakovac II,44.74732051294229,20.450566122688876,dm-drogerie markt,44.75041491412667,20.44904535072961,Cosmetics Shop
669,Miljakovac II,44.74732051294229,20.450566122688876,JYSK,44.750535441851504,20.449102520942688,Furniture / Home Store
670,Miljakovac III,44.74732051294229,20.450566122688876,Slon,44.74809076549393,20.450161756582922,Bar
671,Miljakovac III,44.74732051294229,20.450566122688876,La Perla,44.747162747755695,20.447915533394877,Café
672,Miljakovac III,44.74732051294229,20.450566122688876,Kod dobrog domaćina,44.74841975615056,20.453092183276834,Fast Food Restaurant
673,Miljakovac III,44.74732051294229,20.450566122688876,Good Food Dak,44.748512415355925,20.453247885710166,BBQ Joint
674,Miljakovac III,44.74732051294229,20.450566122688876,Lilly Drogerie,44.74612323026698,20.45147573179936,Cosmetics Shop
675,Miljakovac III,44.74732051294229,20.450566122688876,Puna Kapa,44.748155393147634,20.45025242194585,BBQ Joint
676,Miljakovac III,44.74732051294229,20.450566122688876,"Pekara ""Mihajlović""",44.748273660784704,20.451389134658218,Bakery
677,Miljakovac III,44.74732051294229,20.450566122688876,Maxi,44.745289815269196,20.45151717891601,Grocery Store
678,Miljakovac III,44.74732051294229,20.450566122688876,Robna kuća Beograd,44.75042877026676,20.4490864276886,Department Store
679,Miljakovac III,44.74732051294229,20.450566122688876,dm-drogerie markt,44.75041491412667,20.44904535072961,Cosmetics Shop
680,Miljakovac III,44.74732051294229,20.450566122688876,JYSK,44.750535441851504,20.449102520942688,Furniture / Home Store
681,Petlovo Brdo,44.721899933493575,20.423164096955134,Klopa Kod Kuma,44.72220633448234,20.422850444105116,Pizza Place
682,Petlovo Brdo,44.721899933493575,20.423164096955134,Kafana kod Gliše,44.72205672377085,20.420917029885523,Pub
683,Petlovo Brdo,44.721899933493575,20.423164096955134,Kristal,44.722202405209025,20.423658853832116,Eastern European Restaurant
684,Petlovo Brdo,44.721899933493575,20.423164096955134,Park-šuma Borići,44.72126990132169,20.4197540027098,Forest
685,Petlovo Brdo,44.721899933493575,20.423164096955134,jimmy_bar_ka,44.721084,20.427372,Bar
686,Pionirski Grad,44.758880000000026,20.43994000000004,SquashLand,44.760868307913796,20.436418787723323,Squash Court
687,Pionirski Grad,44.758880000000026,20.43994000000004,Squash Klub Beograd,44.76083849677339,20.436433023582318,Stadium
688,Pionirski Grad,44.758880000000026,20.43994000000004,SRC Pionirski grad,44.760955325435255,20.436514625253203,Athletics & Sports
689,Pionirski Grad,44.758880000000026,20.43994000000004,Belwood,44.76083679416759,20.43758273427744,Restaurant
690,Pionirski Grad,44.758880000000026,20.43994000000004,Balon „Pionir KMF”,44.760472360533115,20.436862207252698,Soccer Field
691,Pionirski Grad,44.758880000000026,20.43994000000004,Železnicka stanica Topčider,44.75714783181218,20.436300562092782,Train Station
692,Rakovica,44.743240000000064,20.445140000000038,KuCeRa | Kulturni centar Rakovica,44.74473079079977,20.446918129379434,Cultural Center
693,Rakovica,44.743240000000064,20.445140000000038,Fitnes klub Bojana,44.74441196925464,20.447164724357542,Gym / Fitness Center
694,Rakovica,44.743240000000064,20.445140000000038,Restoran Masta,44.74397537228915,20.447756589373064,Gastropub
695,Rakovica,44.743240000000064,20.445140000000038,Jovšić Printing Centar,44.74210061252204,20.441478304481418,Print Shop
696,Resnik,44.71169999610489,20.46162996335632,Mabo 23,44.71266752910678,20.462168144727624,Café
697,Resnik,44.71169999610489,20.46162996335632,Chill House,44.71227438323717,20.46028134547315,Café
698,Skojevsko Naselje,44.81310000000008,20.463290000000033,Sinnerman,44.81324726055465,20.462932754131046,Jazz Club
699,Skojevsko Naselje,44.81310000000008,20.463290000000033,Kafeterija | Кафетерија,44.81285187820009,20.46301212346027,Café
700,Strazevica,44.72068480332387,20.450896918281238,Martin-Medical | proizvodnja uniformi po Vašim merama,44.72085029109861,20.451650619506836,Clothing Store
701,Strazevica,44.72068480332387,20.450896918281238,Tunel Straževica,44.71883006493444,20.44837748608537,Tunnel
702,Suncani Breg,44.81310000000008,20.463290000000033,Sinnerman,44.81324726055465,20.462932754131046,Jazz Club
703,Suncani Breg,44.81310000000008,20.463290000000033,Kafeterija | Кафетерија,44.81285187820009,20.46301212346027,Café
704,Vidikovac,44.744589945034456,20.426620040538932,DUB,44.74284878923576,20.42656256392996,Café
705,Vidikovac,44.744589945034456,20.426620040538932,Walker,44.74461233377463,20.427191957886212,Creperie
706,Vidikovac,44.744589945034456,20.426620040538932,Lidl,44.7447984596578,20.42799581106449,Supermarket
707,Vidikovac,44.744589945034456,20.426620040538932,Stivale,44.7421680093675,20.423513186512505,Pizza Place
708,Vidikovac,44.744589945034456,20.426620040538932,Skroz dobra pekara,44.743014612805766,20.42582631111145,Bakery
709,Vidikovac,44.744589945034456,20.426620040538932,McDonald's,44.743769053480975,20.42587067142988,Fast Food Restaurant
710,Vidikovac,44.744589945034456,20.426620040538932,Caffe Pizzeria Felicita,44.743663494817554,20.426195878143158,Pizza Place
711,Vidikovac,44.744589945034456,20.426620040538932,Leon,44.74564214450847,20.42827485623352,Café
712,Vidikovac,44.744589945034456,20.426620040538932,Antika,44.744190932895506,20.427115033481723,Café
713,Vidikovac,44.744589945034456,20.426620040538932,Ritual,44.74248736556869,20.4233642070004,Bar
714,Vidikovac,44.744589945034456,20.426620040538932,Garni Villa Panorama,44.742984192208716,20.43025887707872,Bed & Breakfast
715,Vidikovac,44.744589945034456,20.426620040538932,Cuba,44.744140476070086,20.42657749013364,Bar
716,Vidikovac,44.744589945034456,20.426620040538932,Omnia,44.74343903240012,20.425250161106415,Café
717,Vidikovac,44.744589945034456,20.426620040538932,Apoteka PRIMA,44.74321349770264,20.426605396264588,Pharmacy
718,Vidikovac,44.744589945034456,20.426620040538932,Shop&Go,44.74756640997997,20.426587682020976,Market
719,Vidikovacka Padina,44.742549526496155,20.419476428420772,Pite i meso pod sačem,44.74230577205063,20.4182777139059,Buffet
720,Vidikovacka Padina,44.742549526496155,20.419476428420772,Pijaca Vidikovac,44.741926390439026,20.420236375834573,Farmers Market
721,Vidikovacka Padina,44.742549526496155,20.419476428420772,Kujna Zone,44.742293568653466,20.418235989745742,Cafeteria
722,Vidikovacka Padina,44.742549526496155,20.419476428420772,CrossLand / CrossFit,44.742164401376094,20.417299600491134,Recreation Center
723,Vidikovacka Padina,44.742549526496155,20.419476428420772,Pečenjara,44.741753,20.419563,BBQ Joint
724,Vidikovacka Padina,44.742549526496155,20.419476428420772,Green,44.74166462493326,20.418840694725965,Bakery
725,Vidikovacka Padina,44.742549526496155,20.419476428420772,Poslastičarnica Kraljica,44.7407147782741,20.41905933663112,Dessert Shop
726,Bara Venecija,44.81310000000008,20.463290000000033,Sinnerman,44.81324726055465,20.462932754131046,Jazz Club
727,Bara Venecija,44.81310000000008,20.463290000000033,Kafeterija | Кафетерија,44.81285187820009,20.46301212346027,Café
728,Dedinje,44.77541991949923,20.458599999423143,Square Dedinje,44.776903096776934,20.45837528174209,Plaza
729,Dedinje,44.77541991949923,20.458599999423143,Cheers,44.77673210375262,20.45797590396376,Bar
730,Dedinje,44.77541991949923,20.458599999423143,Coffeedream,44.776521532324615,20.45847087569705,Coffee Shop
731,Dedinje,44.77541991949923,20.458599999423143,Vila,44.77547073364258,20.457000732421875,Café
732,Dedinje,44.77541991949923,20.458599999423143,Dedinjski park,44.7764430875291,20.456894988974124,Park
733,Dedinje,44.77541991949923,20.458599999423143,Tri tačke,44.775367871978496,20.457138856101864,Restaurant
734,Dedinje,44.77541991949923,20.458599999423143,Špageterija,44.776327,20.459085,Italian Restaurant
735,Dedinje,44.77541991949923,20.458599999423143,Aloha,44.77665879899926,20.458326792084375,Italian Restaurant
736,Dedinje,44.77541991949923,20.458599999423143,Nišava,44.775342881914355,20.458692810917793,Restaurant
737,Dedinje,44.77541991949923,20.458599999423143,Hleb & kifle,44.77650367075546,20.458456188953573,Bakery
738,Dedinje,44.77541991949923,20.458599999423143,Maxi,44.776882340255696,20.458384315091706,Supermarket
739,Dedinje,44.77541991949923,20.458599999423143,Societe Generale,44.776634726031716,20.45952108431714,Bank
740,Dedinje,44.77541991949923,20.458599999423143,Konak Dedinje,44.77529338395418,20.45861981787159,Bed & Breakfast
741,Dedinje,44.77541991949923,20.458599999423143,Apoteka „Dedinje”,44.7750228871476,20.459799495429774,Pharmacy
742,Dedinje,44.77541991949923,20.458599999423143,Bilicżki,44.77492629747131,20.46072213864235,Men's Store
743,Dedinje,44.77541991949923,20.458599999423143,Oaza zdravlja,44.776782235288984,20.45877861951447,Pharmacy
744,Dedinje,44.77541991949923,20.458599999423143,Kladionica Olimp,44.77653457601443,20.459085702896118,Casino
745,Dedinje,44.77541991949923,20.458599999423143,Grujić,44.776855790435135,20.458328989229766,Bakery
746,Dedinje,44.77541991949923,20.458599999423143,Amigo,44.7763282623641,20.458932798999093,Mexican Restaurant
747,Dedinje,44.77541991949923,20.458599999423143,Lilly Drogerie,44.776143705399555,20.459518094622666,Cosmetics Shop
748,Dedinje,44.77541991949923,20.458599999423143,Parkić „Diplomatska kolonija”,44.77502578026293,20.461396217663996,Park
749,Dedinje,44.77541991949923,20.458599999423143,Stajalište gradskog prevoza „Dr Dragiša Mišović”,44.777584,20.45853,Bus Stop
750,Diplomatska Kolonija,44.77802075371819,20.463125629472824,Garaža,44.77800507902438,20.459837249600074,Bar
751,Gospodarska Mehana,44.84530338429013,20.41311172312089,Rakia bar,44.84455000705154,20.41341000407858,Bar
752,Gospodarska Mehana,44.84530338429013,20.41311172312089,Magistratski trg,44.84473190704595,20.41336708141588,Plaza
753,Gospodarska Mehana,44.84530338429013,20.41311172312089,Veliki trg,44.845487178797484,20.41326979971861,Plaza
754,Gospodarska Mehana,44.84530338429013,20.41311172312089,Zemunska pijaca,44.84505387356591,20.41354516231286,Farmers Market
755,Gospodarska Mehana,44.84530338429013,20.41311172312089,Semlin,44.8442947166879,20.41306826329859,Pub
756,Gospodarska Mehana,44.84530338429013,20.41311172312089,SUR Naja,44.84505253618119,20.41315665330873,Eastern European Restaurant
757,Gospodarska Mehana,44.84530338429013,20.41311172312089,MoonZla Shtek,44.84417403143209,20.412351130284197,Smoke Shop
758,Gospodarska Mehana,44.84530338429013,20.41311172312089,Gospodska,44.84509788530068,20.412647149411853,Pedestrian Plaza
759,Gospodarska Mehana,44.84530338429013,20.41311172312089,Korak Ispred,44.845167142167995,20.41278648552828,Bistro
760,Gospodarska Mehana,44.84530338429013,20.41311172312089,Sarajevski ćevap,44.84529481813115,20.412170834800357,BBQ Joint
761,Gospodarska Mehana,44.84530338429013,20.41311172312089,Hollywood Stars,44.8457618529861,20.413124782077908,Café
762,Gospodarska Mehana,44.84530338429013,20.41311172312089,Julie Fest,44.84476575604672,20.413218272549347,Café
763,Gospodarska Mehana,44.84530338429013,20.41311172312089,Pozorište,44.84457166442413,20.413376036048838,Café
764,Gospodarska Mehana,44.84530338429013,20.41311172312089,Kafana „Veliki trg”,44.84538667315924,20.413348217390812,Restaurant
765,Gospodarska Mehana,44.84530338429013,20.41311172312089,Retro,44.8441634098038,20.41286750286128,Café
766,Gospodarska Mehana,44.84530338429013,20.41311172312089,Codex,44.845099019907764,20.41268109021291,Café
767,Gospodarska Mehana,44.84530338429013,20.41311172312089,Maxi,44.845341793563215,20.413163142125356,Supermarket
768,Gospodarska Mehana,44.84530338429013,20.41311172312089,Tri lađara,44.84618425404653,20.413056875106207,Jazz Club
769,Gospodarska Mehana,44.84530338429013,20.41311172312089,Hedonist,44.8449437619842,20.412264426579114,Café
770,Gospodarska Mehana,44.84530338429013,20.41311172312089,Ze&Z,44.84513575026333,20.413046491786638,Pizza Place
771,Gospodarska Mehana,44.84530338429013,20.41311172312089,Poslastičarnica Sara,44.84494919627975,20.41221965502556,Dessert Shop
772,Gospodarska Mehana,44.84530338429013,20.41311172312089,Стари Русмир | Stari Rusmir,44.84437993179316,20.414423864037214,Restaurant
773,Gospodarska Mehana,44.84530338429013,20.41311172312089,Pozorište,44.844572529176226,20.41343178663162,Café
774,Jatagan Mala,44.81310000000008,20.463290000000033,Sinnerman,44.81324726055465,20.462932754131046,Jazz Club
775,Jatagan Mala,44.81310000000008,20.463290000000033,Kafeterija | Кафетерија,44.81285187820009,20.46301212346027,Café
776,Karadjordjev park,44.797480000000064,20.46981000000005,Pizza Bar,44.79828039290206,20.46998335601347,Pizza Place
777,Karadjordjev park,44.797480000000064,20.46981000000005,Marenda,44.7966720235725,20.4692254751378,Restaurant
778,Karadjordjev park,44.797480000000064,20.46981000000005,Villa Maska,44.7963226194171,20.467506259404416,Restaurant
779,Karadjordjev park,44.797480000000064,20.46981000000005,Stanica,44.79627055909293,20.46943195166766,Bar
780,Karadjordjev park,44.797480000000064,20.46981000000005,Цегер | Ceger,44.796885929867265,20.468238777690296,Café
781,Karadjordjev park,44.797480000000064,20.46981000000005,Кафанић | Kafanić,44.79722410008316,20.47149276030099,Cafeteria
782,Karadjordjev park,44.797480000000064,20.46981000000005,Intergalactic Diner,44.79499887058554,20.469017899458045,Diner
783,Karadjordjev park,44.797480000000064,20.46981000000005,Crystal,44.795514149327026,20.46758906093628,Hotel
784,Karadjordjev park,44.797480000000064,20.46981000000005,Kućica,44.79890391958453,20.47065293495957,Bar
785,Karadjordjev park,44.797480000000064,20.46981000000005,Terminal,44.79696691670544,20.46956192727511,Gastropub
786,Karadjordjev park,44.797480000000064,20.46981000000005,Pejton,44.799665328537635,20.471499413848527,Pub
787,Karadjordjev park,44.797480000000064,20.46981000000005,Cafe & Factory,44.799097471598024,20.46904494612064,Coffee Shop
788,Karadjordjev park,44.797480000000064,20.46981000000005,Le Petit Bistro,44.794778931577916,20.46944327566265,Bistro
789,Karadjordjev park,44.797480000000064,20.46981000000005,dm-drogerie markt,44.79895161993177,20.472743511199948,Cosmetics Shop
790,Karadjordjev park,44.797480000000064,20.46981000000005,Diktat - Institut De Beauté,44.79533714843545,20.467310614006717,Salon / Barbershop
791,Karadjordjev park,44.797480000000064,20.46981000000005,Ultimatum,44.79718840067648,20.473117967878515,Restaurant
792,Karadjordjev park,44.797480000000064,20.46981000000005,FitCurves,44.79601153777674,20.471391693871134,Gym
793,Karadjordjev park,44.797480000000064,20.46981000000005,Aziz Sava Katedrali,44.79805918934162,20.46873390022094,Historic Site
794,Karadjordjev park,44.797480000000064,20.46981000000005,Koki,44.798893170799204,20.47276104485183,Dessert Shop
795,Karadjordjev park,44.797480000000064,20.46981000000005,District1,44.7963301966224,20.466591059677548,Restaurant
796,Karadjordjev park,44.797480000000064,20.46981000000005,Вронский | Vronskii,44.79496197337446,20.46919856103641,Cocktail Bar
797,Karadjordjev park,44.797480000000064,20.46981000000005,Bicikl,44.79556373261314,20.46905279159546,Dessert Shop
798,Karadjordjev park,44.797480000000064,20.46981000000005,Chillton,44.79960984263603,20.47123795856924,Bar
799,Karadjordjev park,44.797480000000064,20.46981000000005,Cafe & Factory 8,44.799214788953215,20.46918902146972,Coffee Shop
800,Karadjordjev park,44.797480000000064,20.46981000000005,URMUS | Udruženje rok muzičara Srbije,44.79833574221442,20.471337826602063,Bar
801,Karadjordjev park,44.797480000000064,20.46981000000005,Trandafilović,44.798874225050675,20.472875852053534,Bistro
802,Karadjordjev park,44.797480000000064,20.46981000000005,Zrno,44.79906265308894,20.46921128198324,Bakery
803,Karadjordjev park,44.797480000000064,20.46981000000005,Clinique,44.79892810559783,20.467030131395592,Café
804,Karadjordjev park,44.797480000000064,20.46981000000005,StarMedic,44.79654138627443,20.472806619400604,Spa
805,Karadjordjev park,44.797480000000064,20.46981000000005,Soko Štark,44.79965522946916,20.471158116308718,Candy Store
806,Karadjordjev park,44.797480000000064,20.46981000000005,Baloro Creperie & Cafe,44.79918843012354,20.472854408437886,Creperie
807,Karadjordjev park,44.797480000000064,20.46981000000005,Lesko žar,44.79970617400227,20.47140480173057,BBQ Joint
808,Karadjordjev park,44.797480000000064,20.46981000000005,Konoba,44.79483870629769,20.46927826215847,Restaurant
809,Karadjordjev park,44.797480000000064,20.46981000000005,Galaxy,44.79643845056575,20.4668416429993,Restaurant
810,Karadjordjev park,44.797480000000064,20.46981000000005,City Angel,44.79933917715432,20.469969049610096,Café
811,Karadjordjev park,44.797480000000064,20.46981000000005,Aroma,44.79988845488341,20.47127829200688,Supermarket
812,Karadjordjev park,44.797480000000064,20.46981000000005,Maslina,44.799692636442686,20.47124920541012,Health Food Store
813,Karadjordjev park,44.797480000000064,20.46981000000005,Kiflovski,44.796306728689565,20.469826842790884,Bakery
814,Karadjordjev park,44.797480000000064,20.46981000000005,Naša 1. pekara,44.79928165259285,20.469802230453457,Bakery
815,Karadjordjev park,44.797480000000064,20.46981000000005,iDEA,44.79636331357346,20.471396631640104,Supermarket
816,Karadjordjev park,44.797480000000064,20.46981000000005,Angolo,44.794946990079985,20.46925743198809,Café
817,Lisicji Potok,44.74749437188546,20.504919590111395,Čedino dvorište,44.7473727849396,20.50093487145727,Dog Run
818,Lisicji Potok,44.74749437188546,20.504919590111395,Sumadijska terasa,44.7500157356106,20.507402512192357,Restaurant
819,Mostarska Petlja,44.8508181805254,20.38253999643679,Dubočica,44.84883836712947,20.386138868722334,Restaurant
820,Mostarska Petlja,44.8508181805254,20.38253999643679,Zemunelo | Sportski centar Partizan-Teleoptik,44.8514924373445,20.38292517776969,Athletics & Sports
821,Mostarska Petlja,44.8508181805254,20.38253999643679,"Teretana „BFK Zemun""",44.849342346191406,20.38176727294922,Gym
822,Mostarska Petlja,44.8508181805254,20.38253999643679,Poslastičarnica Biljana,44.85018595598535,20.3853049054058,Dessert Shop
823,Mostarska Petlja,44.8508181805254,20.38253999643679,Zlatni klas,44.85120732961276,20.385694927331325,Bakery
824,Mostarska Petlja,44.8508181805254,20.38253999643679,Okretnica autobusa Bačka,44.85118708631176,20.385716823211762,Bus Station
825,Mostarska Petlja,44.8508181805254,20.38253999643679,Best ***,44.852710833175614,20.384812193567136,Hotel
826,Mostarska Petlja,44.8508181805254,20.38253999643679,Tamburaško gnezdo,44.85214171322979,20.379523781537408,Restaurant
827,Mostarska Petlja,44.8508181805254,20.38253999643679,"Štamparija ""Point""",44.84864288551157,20.380436100152778,Paper / Office Supplies Store
828,Mostarska Petlja,44.8508181805254,20.38253999643679,Fratello,44.84870167242669,20.380174050993507,Café
829,Mostarska Petlja,44.8508181805254,20.38253999643679,Bus 45,44.850489546459954,20.386520075884192,Moving Target
830,Mostarska Petlja,44.8508181805254,20.38253999643679,Jelena B&B,44.848801867979546,20.385902931960633,Bed & Breakfast
831,Mostarska Petlja,44.8508181805254,20.38253999643679,Komision MB,44.84971606628302,20.387121539086465,Food & Drink Shop
832,Mostarska Petlja,44.8508181805254,20.38253999643679,Mediterano,44.84738921240344,20.38070635083097,Pizza Place
833,Prokop,44.81310000000008,20.463290000000033,Sinnerman,44.81324726055465,20.462932754131046,Jazz Club
834,Prokop,44.81310000000008,20.463290000000033,Kafeterija | Кафетерија,44.81285187820009,20.46301212346027,Café
835,Savamala,44.808739941139315,20.45719001889881,Zavičaj,44.80927,20.458612,Restaurant
836,Savamala,44.808739941139315,20.45719001889881,Anđelko,44.80974662594502,20.459140527669067,Bakery
837,Savamala,44.808739941139315,20.45719001889881,Old London,44.81051950500187,20.457230465437654,Pub
838,Savamala,44.808739941139315,20.45719001889881,Ferdinand knedle,44.809595301286066,20.45810187462074,Dessert Shop
839,Savamala,44.808739941139315,20.45719001889881,Hostel Home Sweet Home,44.810221557787635,20.459600260231593,Hostel
840,Savamala,44.808739941139315,20.45719001889881,Corner,44.80969729709151,20.45784654354511,Pub
841,Savamala,44.808739941139315,20.45719001889881,Monument,44.80750145616687,20.46044394654157,Italian Restaurant
842,Savamala,44.808739941139315,20.45719001889881,Palačinkarnica Amigo,44.809332885671466,20.460959149269645,Creperie
843,Savamala,44.808739941139315,20.45719001889881,Belgrade City Hotel,44.80850230368743,20.457465697922594,Hotel
844,Savamala,44.808739941139315,20.45719001889881,Publin,44.81031459671805,20.458894285074777,Pub
845,Senjak,44.7908715,20.43833175000001,Java Coffee Specialty Roasters,44.788603704904446,20.437777900650655,Coffee Shop
846,Senjak,44.7908715,20.43833175000001,Dvorište,44.788565996835054,20.43764397366441,Pizza Place
847,Senjak,44.7908715,20.43833175000001,W Sushi & Fusion Bar,44.78870476213765,20.440153323624887,Sushi Restaurant
848,Senjak,44.7908715,20.43833175000001,Jai Thai,44.78894632162162,20.44082243973352,Spa
849,Senjak,44.7908715,20.43833175000001,Sushi Box Bizu,44.78831096524788,20.439354660304485,Sushi Restaurant
850,Senjak,44.7908715,20.43833175000001,Igraonica Okean,44.788322435728894,20.43966380636301,Playground
851,Senjak,44.7908715,20.43833175000001,Sheher,44.78833158744722,20.44009849773517,Restaurant
852,Senjak,44.7908715,20.43833175000001,Grafičar,44.79007732790855,20.441401016197158,Restaurant
853,Senjak,44.7908715,20.43833175000001,Quan Ju De,44.791453497176434,20.440908646934332,Chinese Restaurant
854,Senjak,44.7908715,20.43833175000001,Muzej afričke umetnosti,44.788764164722686,20.4351561980882,Museum
855,Senjak,44.7908715,20.43833175000001,Cafe Cafe & Fish,44.788764518192515,20.440707206726074,Seafood Restaurant
856,Senjak,44.7908715,20.43833175000001,Kuća kralja Petra I,44.79025391636977,20.439839102236537,Museum
857,Senjak,44.7908715,20.43833175000001,Topčiderska zvezda,44.78857584010438,20.442353049782668,Plaza
858,Senjak,44.7908715,20.43833175000001,Parlament,44.7942043363874,20.437657979657413,Nightclub
859,Senjak,44.7908715,20.43833175000001,Rustique | Zodiac,44.78886621326584,20.44081142264297,Italian Restaurant
860,Senjak,44.7908715,20.43833175000001,Restoran 27,44.7873790508644,20.43644763423114,Mediterranean Restaurant
861,Senjak,44.7908715,20.43833175000001,NIS Petrol | BS Senjak,44.78947710312869,20.439073643499576,Gas Station
862,Senjak,44.7908715,20.43833175000001,Maxi,44.788384957098195,20.43909165840887,Supermarket
863,Senjak,44.7908715,20.43833175000001,Lep izgled,44.79332269299634,20.438043464638472,Restaurant
864,Senjak,44.7908715,20.43833175000001,Bojana,44.788526205619746,20.44064677020433,Bakery
865,Senjak,44.7908715,20.43833175000001,Wine Cellar Panajotovic / Podrum Panajotović,44.79281350880272,20.436405815516476,Wine Bar
866,Senjak,44.7908715,20.43833175000001,Coffeedream,44.78843,20.439976,Coffee Shop
867,Senjak,44.7908715,20.43833175000001,Stadion FK Grafičar,44.78984193158976,20.442553394395087,Soccer Stadium
868,Senjak,44.7908715,20.43833175000001,Kod Mileta,44.7941593819626,20.435958004204387,Fast Food Restaurant
869,Senjak,44.7908715,20.43833175000001,aqua casa,44.79419258829746,20.43576955823484,Furniture / Home Store
870,Senjak,44.7908715,20.43833175000001,Aj' da probamo kafanica,44.79286808978516,20.443027188010102,Bar
871,Stadion,44.77569006607411,20.490009958307358,Restoran Stadion,44.775327998407455,20.48938521855389,Restaurant
872,Stadion,44.77569006607411,20.490009958307358,Stadion Bojan Majić | FK Voždovac,44.77475318541911,20.489975171029876,Soccer Stadium
873,Stadion,44.77569006607411,20.490009958307358,Dreamland igraonica,44.77441081373263,20.490786334617564,Playground
874,Stadion,44.77569006607411,20.490009958307358,C&A,44.7752133983584,20.49026857120539,Boutique
875,Stadion,44.77569006607411,20.490009958307358,Asia Food,44.77543733155831,20.490168800022722,Asian Restaurant
876,Stadion,44.77569006607411,20.490009958307358,NewYorker,44.77530775328996,20.490402763355352,Boutique
877,Stadion,44.77569006607411,20.490009958307358,KFC,44.775628,20.489513,Fried Chicken Joint
878,Stadion,44.77569006607411,20.490009958307358,Naše kafanče,44.7767628039417,20.488716865956352,Restaurant
